Airport ID,Name,City,Country,IATA,ICAO,Latitude,Longitude
1,Goroka Airport,Goroka,Papua New Guinea,GKA,AYGA,-6.081689834590001,145.391998291
2,Madang Airport,Madang,Papua New Guinea,MAG,AYMD,-5.20707988739,145.789001465
3,Mount Hagen Kagamuga Airport,Mount Hagen,Papua New Guinea,HGU,AYMH,-5.826789855957031,144.29600524902344
4,Nadzab Airport,Nadzab,Papua New Guinea,LAE,AYNZ,-6.569803,146.725977
5,Port Moresby Jacksons International Airport,Port Moresby,Papua New Guinea,POM,AYPY,-9.44338035583496,147.22000122070312
6,Wewak International Airport,Wewak,Papua New Guinea,WWK,AYWK,-3.58383011818,143.669006348
7,Narsarsuaq Airport,Narssarssuaq,Greenland,UAK,BGBW,61.1604995728,-45.4259986877
8,Godthaab / Nuuk Airport,Godthaab,Greenland,GOH,BGGH,64.19090271,-51.6781005859
9,Kangerlussuaq Airport,Sondrestrom,Greenland,SFJ,BGSF,67.0122218992,-50.7116031647
11,Akureyri Airport,Akureyri,Iceland,AEY,BIAR,65.66000366210938,-18.07270050048828
12,Egilsstaðir Airport,Egilsstadir,Iceland,EGS,BIEG,65.2833023071289,-14.401399612426758
15,Ísafjörður Airport,Isafjordur,Iceland,IFJ,BIIS,66.05809783935547,-23.135299682617188
16,Keflavik International Airport,Keflavik,Iceland,KEF,BIKF,63.985000610352,-22.605600357056
18,Reykjavik Airport,Reykjavik,Iceland,RKV,BIRK,64.1299972534,-21.9405994415
21,Sault Ste Marie Airport,Sault Sainte Marie,Canada,YAM,CYAM,46.48500061035156,-84.5093994140625
27,Baie Comeau Airport,Baie Comeau,Canada,YBC,CYBC,49.13249969482422,-68.20439910888672
29,Baker Lake Airport,Baker Lake,Canada,YBK,CYBK,64.29889678960001,-96.077796936
30,Campbell River Airport,Campbell River,Canada,YBL,CYBL,49.950801849365234,-125.27100372314452
31,Brandon Municipal Airport,Brandon,Canada,YBR,CYBR,49.91,-99.951897
32,Cambridge Bay Airport,Cambridge Bay,Canada,YCB,CYCB,69.1081008911,-105.138000488
33,Nanaimo Airport,Nanaimo,Canada,YCD,CYCD,49.0549702249,-123.869862556
34,Castlegar/West Kootenay Regional Airport,Castlegar,Canada,YCG,CYCG,49.2963981628,-117.632003784
37,Kugluktuk Airport,Coppermine,Canada,YCO,CYCO,67.816704,-115.143997
40,Clyde River Airport,Clyde River,Canada,YCY,CYCY,70.4860992432,-68.5167007446
41,Coral Harbour Airport,Coral Harbour,Canada,YZS,CYZS,64.1932983398,-83.3593978882
45,Deer Lake Airport,Deer Lake,Canada,YDF,CYDF,49.21080017089844,-57.39139938354492
49,Edmonton International Airport,Edmonton,Canada,YEG,CYEG,53.3097000122,-113.580001831
50,Arviat Airport,Eskimo Point,Canada,YEK,CYEK,61.0942001343,-94.0708007812
54,Inuvik Mike Zubko Airport,Inuvik,Canada,YEV,CYEV,68.30419921880001,-133.483001709
55,Iqaluit Airport,Iqaluit,Canada,YFB,CYFB,63.756402,-68.555801
56,Fredericton Airport,Fredericton,Canada,YFC,CYFC,45.868900299072266,-66.53720092773438
58,Flin Flon Airport,Flin Flon,Canada,YFO,CYFO,54.6781005859375,-101.68199920654295
60,Fort Simpson Airport,Fort Simpson,Canada,YFS,CYFS,61.76020050048828,-121.23699951171876
61,Kingston Norman Rogers Airport,Kingston,Canada,YGK,CYGK,44.22529983520508,-76.5969009399414
63,Gaspé (Michel-Pouliot) Airport,Gaspe,Canada,YGP,CYGP,48.7752990723,-64.4785995483
65,Îles-de-la-Madeleine Airport,Iles De La Madeleine,Canada,YGR,CYGR,47.42470169067383,-61.778099060058594
67,Dryden Regional Airport,Dryden,Canada,YHD,CYHD,49.831699,-92.744202
68,Ulukhaktok Holman Airport,Holman Island,Canada,YHI,CYHI,70.76280212402344,-117.80599975585938
69,Gjoa Haven Airport,Gjoa Haven,Canada,YHK,CYHK,68.635597229,-95.8497009277
70,John C. Munro Hamilton International Airport,Hamilton,Canada,YHM,CYHM,43.1735992432,-79.93499755859999
72,Hay River / Merlyn Carter Airport,Hay River,Canada,YHY,CYHY,60.8396987915,-115.782997131
73,Halifax / Stanfield International Airport,Halifax,Canada,YHZ,CYHZ,44.8807983398,-63.5085983276
75,Pond Inlet Airport,Pond Inlet,Canada,YIO,CYIO,72.6832962036,-77.9666976929
78,Kamloops Airport,Kamloops,Canada,YKA,CYKA,50.7022018433,-120.444000244
79,Waterloo Airport,Waterloo,Canada,YKF,CYKF,43.4608001709,-80.3786010742
87,Kelowna International Airport,Kelowna,Canada,YLW,CYLW,49.9561004639,-119.377998352
90,Fort McMurray Airport,Fort Mcmurray,Canada,YMM,CYMM,56.653301239,-111.222000122
94,Natashquan Airport,Natashquan,Canada,YNA,CYNA,50.18999862670898,-61.78919982910156
100,Ottawa Macdonald-Cartier International Airport,Ottawa,Canada,YOW,CYOW,45.3224983215332,-75.66919708251953
106,Port Menier Airport,Port Menier,Canada,YPN,CYPN,49.83639907836914,-64.2885971069336
108,Prince Rupert Airport,Prince Pupert,Canada,YPR,CYPR,54.2860984802,-130.445007324
109,Fort Chipewyan Airport,Fort Chipewyan,Canada,YPY,CYPY,58.7672004699707,-111.11699676513672
111,Quebec Jean Lesage International Airport,Quebec,Canada,YQB,CYQB,46.7911,-71.393303
112,Red Deer Regional Airport,Red Deer Industrial,Canada,YQF,CYQF,52.18220138549805,-113.8939971923828
113,Windsor Airport,Windsor,Canada,YQG,CYQG,42.27560043334961,-82.95559692382812
115,Kenora Airport,Kenora,Canada,YQK,CYQK,49.78829956054688,-94.36309814453124
116,Lethbridge County Airport,Lethbridge,Canada,YQL,CYQL,49.6302986145,-112.800003052
117,Greater Moncton International Airport,Moncton,Canada,YQM,CYQM,46.11220169067383,-64.67859649658203
119,Comox Airport,Comox,Canada,YQQ,CYQQ,49.71080017089844,-124.88700103759766
120,Regina International Airport,Regina,Canada,YQR,CYQR,50.43190002441406,-104.66600036621094
121,Thunder Bay Airport,Thunder Bay,Canada,YQT,CYQT,48.37189865112305,-89.32389831542969
122,Grande Prairie Airport,Grande Prairie,Canada,YQU,CYQU,55.1796989441,-118.885002136
125,Gander International Airport,Gander,Canada,YQX,CYQX,48.9369010925293,-54.56809997558594
126,Sydney / J.A. Douglas McCurdy Airport,Sydney,Canada,YQY,CYQY,46.1614,-60.047798
127,Quesnel Airport,Quesnel,Canada,YQZ,CYQZ,53.026100158691406,-122.51000213623048
128,Resolute Bay Airport,Resolute,Canada,YRB,CYRB,74.7169036865,-94.9693984985
132,Rankin Inlet Airport,Rankin Inlet,Canada,YRT,CYRT,62.8114013672,-92.1157989502
133,Sudbury Airport,Sudbury,Canada,YSB,CYSB,46.625,-80.79889678955078
135,Saint John Airport,St. John,Canada,YSJ,CYSJ,45.31610107421875,-65.89029693603516
136,Fort Smith Airport,Fort Smith,Canada,YSM,CYSM,60.020301818847656,-111.96199798583984
140,Cape Dorset Airport,Cape Dorset,Canada,YTE,CYTE,64.2300033569,-76.5267028809
141,Thompson Airport,Thompson,Canada,YTH,CYTH,55.80110168457031,-97.86419677734376
144,Billy Bishop Toronto City Centre Airport,Toronto,Canada,YTZ,CYTZ,43.627499,-79.396202
146,Montreal / Pierre Elliott Trudeau International Airport,Montreal,Canada,YUL,CYUL,45.4706001282,-73.7407989502
147,Repulse Bay Airport,Repulse Bay,Canada,YUT,CYUT,66.5214004517,-86.22470092770001
148,Hall Beach Airport,Hall Beach,Canada,YUX,CYUX,68.77610015869999,-81.2425
149,Rouyn Noranda Airport,Rouyn,Canada,YUY,CYUY,48.20610046386719,-78.83560180664062
152,Qikiqtarjuaq Airport,Broughton Island,Canada,YVM,CYVM,67.5457992554,-64.03140258789999
153,Val-d'Or Airport,Val D'or,Canada,YVO,CYVO,48.0532989502,-77.7827987671
154,Kuujjuaq Airport,Quujjuaq,Canada,YVP,CYVP,58.096099853515625,-68.4269027709961
155,Norman Wells Airport,Norman Wells,Canada,YVQ,CYVQ,65.28160095214844,-126.7979965209961
156,Vancouver International Airport,Vancouver,Canada,YVR,CYVR,49.193901062,-123.183998108
160,Winnipeg / James Armstrong Richardson International Airport,Winnipeg,Canada,YWG,CYWG,49.9099998474,-97.2398986816
161,Wabush Airport,Wabush,Canada,YWK,CYWK,52.92190170288086,-66.8644027709961
162,Williams Lake Airport,Williams Lake,Canada,YWL,CYWL,52.1831016541,-122.054000854
164,Cranbrook/Canadian Rockies International Airport,Cranbrook,Canada,YXC,CYXC,49.610801696777,-115.78199768066
166,Saskatoon John G. Diefenbaker International Airport,Saskatoon,Canada,YXE,CYXE,52.17079925537109,-106.6999969482422
167,Medicine Hat Airport,Medicine Hat,Canada,YXH,CYXH,50.01890182495117,-110.72100067138672
168,Fort St John Airport,Fort Saint John,Canada,YXJ,CYXJ,56.23809814453125,-120.73999786376952
169,Sioux Lookout Airport,Sioux Lookout,Canada,YXL,CYXL,50.11389923095703,-91.9052963256836
170,Pangnirtung Airport,Pangnirtung,Canada,YXP,CYXP,66.1449966431,-65.71360015869999
172,Prince George Airport,Prince George,Canada,YXS,CYXS,53.8894004822,-122.679000854
173,Northwest Regional Airport Terrace-Kitimat,Terrace,Canada,YXT,CYXT,54.468498,-128.576009
174,London Airport,London,Canada,YXU,CYXU,43.035599,-81.1539
175,Abbotsford Airport,Abbotsford,Canada,YXX,CYXX,49.025299072265625,-122.36100006103516
176,Whitehorse / Erik Nielsen International Airport,Whitehorse,Canada,YXY,CYXY,60.7095985413,-135.067001343
177,North Bay Jack Garland Airport,North Bay,Canada,YYB,CYYB,46.363602,-79.422798
178,Calgary International Airport,Calgary,Canada,YYC,CYYC,51.113899231,-114.019996643
179,Smithers Airport,Smithers,Canada,YYD,CYYD,54.82469940185547,-127.18299865722656
181,Penticton Airport,Penticton,Canada,YYF,CYYF,49.46310043334961,-119.60199737548828
182,Charlottetown Airport,Charlottetown,Canada,YYG,CYYG,46.290000915527344,-63.12110137939453
183,Taloyoak Airport,Spence Bay,Canada,YYH,CYYH,69.5466995239,-93.5766983032
184,Victoria International Airport,Victoria,Canada,YYJ,CYYJ,48.646900177,-123.426002502
187,Churchill Airport,Churchill,Canada,YYQ,CYYQ,58.739200592041016,-94.06500244140624
188,Goose Bay Airport,Goose Bay,Canada,YYR,CYYR,53.3191986084,-60.4258003235
189,St. John's International Airport,St. John's,Canada,YYT,CYYT,47.618598938,-52.7518997192
190,Kapuskasing Airport,Kapuskasing,Canada,YYU,CYYU,49.41389846801758,-82.46749877929688
192,Mont Joli Airport,Mont Joli,Canada,YYY,CYYY,48.60860061645508,-68.20809936523438
193,Lester B. Pearson International Airport,Toronto,Canada,YYZ,CYYZ,43.6772003174,-79.63059997559999
196,Yellowknife Airport,Yellowknife,Canada,YZF,CYZF,62.462799072265625,-114.44000244140624
198,Sandspit Airport,Sandspit,Canada,YZP,CYZP,53.25429916379999,-131.813995361
199,Chris Hadfield Airport,Sarnia,Canada,YZR,CYZR,42.9994010925293,-82.30889892578125
200,Port Hardy Airport,Port Hardy,Canada,YZT,CYZT,50.68059921264648,-127.36699676513672
202,Sept-Îles Airport,Sept-iles,Canada,YZV,CYZV,50.22330093383789,-66.2656021118164
209,Soummam Airport,Bejaja,Algeria,BJA,DAAE,36.7120018005,5.0699200630200005
210,Houari Boumediene Airport,Algier,Algeria,ALG,DAAG,36.69100189208984,3.215409994125366
211,Djanet Inedbirene Airport,Djanet,Algeria,DJG,DAAJ,24.292801,9.45244
216,Aguenar – Hadj Bey Akhamok Airport,Tamanrasset,Algeria,TMR,DAAT,22.8115005493,5.45107984543
220,Rabah Bitat Airport,Annaba,Algeria,AAE,DABB,36.822201,7.809174
221,Mohamed Boudiaf International Airport,Constantine,Algeria,CZL,DABC,36.2760009765625,6.620389938354492
222,Cheikh Larbi Tébessi Airport,Tebessa,Algeria,TEE,DABS,35.4315986633,8.12071990967
224,Hassi R'Mel Airport,Tilrempt,Algeria,HRM,DAFH,32.93040084838867,3.311539888381958
225,Bou Chekif Airport,Tiaret,Algeria,TID,DAOB,35.3410987854,1.46315002441
230,Zenata – Messali El Hadj Airport,Tlemcen,Algeria,TLM,DAON,35.0167007446,-1.45000004768
231,Es Senia Airport,Oran,Algeria,ORN,DAOO,35.6239013672,-0.6211829781529999
233,Ghriss Airport,Ghriss,Algeria,MUW,DAOV,35.207698822021484,0.1471419930458068
234,Touat Cheikh Sidi Mohamed Belkebir Airport,Adrar,Algeria,AZR,DAUA,27.83760070800781,-0.1864140033721923
235,Biskra Airport,Biskra,Algeria,BSK,DAUB,34.7933006287,5.73823022842
236,El Golea Airport,El Golea,Algeria,ELG,DAUE,30.5713005065918,2.8595900535583496
237,Noumérat - Moufdi Zakaria Airport,Ghardaia,Algeria,GHA,DAUG,32.38410186767578,3.794110059738159
238,Oued Irara Airport,Hassi Messaoud,Algeria,HME,DAUH,31.6730003357,6.140439987180001
239,In Salah Airport,In Salah,Algeria,INZ,DAUI,27.2509994507,2.51202011108
240,Touggourt Sidi Madhi Airport,Touggourt,Algeria,TGR,DAUK,33.06779861450195,6.088669776916504
243,Ain el Beida Airport,Ouargla,Algeria,OGX,DAUU,31.917200088500977,5.412779808044434
244,In Aménas Airport,Zarzaitine,Algeria,IAM,DAUZ,28.0515,9.64291
245,Cadjehoun Airport,Cotonou,Benin,COO,DBBB,6.357230186462402,2.384350061416626
246,Ouagadougou Airport,Ouagadougou,Burkina Faso,OUA,DFFD,12.3532,-1.51242
247,Bobo Dioulasso Airport,Bobo-dioulasso,Burkina Faso,BOY,DFOO,11.160099983215332,-4.33096981048584
248,Kotoka International Airport,Accra,Ghana,ACC,DGAA,5.605189800262451,-0.1667860001325607
249,Tamale Airport,Tamale,Ghana,TML,DGLE,9.55718994140625,-0.8632140159606934
252,Takoradi Airport,Takoradi,Ghana,TKD,DGTK,4.896059989929199,-1.7747600078582764
253,Port Bouet Airport,Abidjan,Cote d'Ivoire,ABJ,DIAP,5.261390209197998,-3.9262900352478014
260,Nnamdi Azikiwe International Airport,Abuja,Nigeria,ABV,DNAA,9.006790161132812,7.263169765472412
262,Benin Airport,Benin,Nigeria,BNI,DNBE,6.316979885101318,5.599500179290772
263,Margaret Ekpo International Airport,Calabar,Nigeria,CBQ,DNCA,4.976019859313965,8.347200393676758
264,Akanu Ibiam International Airport,Enugu,Nigeria,ENU,DNEN,6.474269866943359,7.561960220336914
266,Ibadan Airport,Ibadan,Nigeria,IBA,DNIB,7.362460136413574,3.97832989692688
267,Ilorin International Airport,Ilorin,Nigeria,ILR,DNIL,8.440210342407227,4.493919849395752
268,Yakubu Gowon Airport,Jos,Nigeria,JOS,DNJO,9.639829635620115,8.869050025939941
269,Kaduna Airport,Kaduna,Nigeria,KAD,DNKA,10.696000099182127,7.320109844207764
270,Mallam Aminu International Airport,Kano,Nigeria,KAN,DNKN,12.0476,8.52462
273,Murtala Muhammed International Airport,Lagos,Nigeria,LOS,DNMM,6.5773701667785645,3.321160078048706
275,Port Harcourt International Airport,Port Hartcourt,Nigeria,PHC,DNPO,5.0154900550842285,6.94959020614624
276,Sadiq Abubakar III International Airport,Sokoto,Nigeria,SKO,DNSO,12.916299819946287,5.207190036773682
277,Yola Airport,Yola,Nigeria,YOL,DNYO,9.257550239562988,12.430399894714355
280,Diori Hamani International Airport,Niamey,Niger,NIM,DRRN,13.4815,2.18361
286,Monastir Habib Bourguiba International Airport,Monastir,Tunisia,MIR,DTMB,35.75809860229492,10.75469970703125
287,Tunis Carthage International Airport,Tunis,Tunisia,TUN,DTTA,36.85100173950195,10.22719955444336
290,Gafsa Ksar International Airport,Gafsa,Tunisia,GAF,DTTF,34.422000885009766,8.822500228881836
291,Gabès Matmata International Airport,Gabes,Tunisia,GAE,DTTG,33.87689971923828,10.103300094604492
293,Djerba Zarzis International Airport,Djerba,Tunisia,DJE,DTTJ,33.875,10.775500297546388
295,Sfax Thyna International Airport,Sfax,Tunisia,SFA,DTTX,34.71799850463867,10.690999984741213
296,Tozeur Nefta International Airport,Tozeur,Tunisia,TOE,DTTZ,33.939701080322266,8.110560417175293
298,Lomé-Tokoin Airport,Lome,Togo,LFW,DXXX,6.165609836578369,1.2545100450515747
299,Antwerp International Airport (Deurne),Antwerp,Belgium,ANR,EBAW,51.1893997192,4.46027994156
302,Brussels Airport,Brussels,Belgium,BRU,EBBR,50.9014015198,4.48443984985
304,Brussels South Charleroi Airport,Charleroi,Belgium,CRL,EBCI,50.459202,4.45382
309,Liège Airport,Liege,Belgium,LGG,EBLG,50.63740158081055,5.443220138549805
310,Ostend-Bruges International Airport,Ostend,Belgium,OST,EBOS,51.1988983154,2.8622200489
337,Berlin-Schönefeld Airport,Berlin,Germany,SXF,EDDB,52.380001,13.5225
338,Dresden Airport,Dresden,Germany,DRS,EDDC,51.1328010559082,13.767200469970703
339,Erfurt Airport,Erfurt,Germany,ERF,EDDE,50.97980117797852,10.958100318908691
340,Frankfurt am Main Airport,Frankfurt,Germany,FRA,EDDF,50.033333,8.570556
341,Münster Osnabrück Airport,Munster,Germany,FMO,EDDG,52.134601593,7.68483018875
342,Hamburg Airport,Hamburg,Germany,HAM,EDDH,53.630401611328,9.9882297515869
344,Cologne Bonn Airport,Cologne,Germany,CGN,EDDK,50.8658981323,7.1427397728
345,Düsseldorf Airport,Duesseldorf,Germany,DUS,EDDL,51.289501,6.76678
346,Munich Airport,Munich,Germany,MUC,EDDM,48.353802,11.7861
347,Nuremberg Airport,Nuernberg,Germany,NUE,EDDN,49.498699,11.078056
348,Leipzig/Halle Airport,Leipzig,Germany,LEJ,EDDP,51.423889,12.236389
349,Saarbrücken Airport,Saarbruecken,Germany,SCN,EDDR,49.2145996094,7.10950994492
350,Stuttgart Airport,Stuttgart,Germany,STR,EDDS,48.6898994446,9.22196006775
351,Berlin-Tegel Airport,Berlin,Germany,TXL,EDDT,52.5597,13.2877
352,Hannover Airport,Hannover,Germany,HAJ,EDDV,52.461101532,9.68507957458
353,Bremen Airport,Bremen,Germany,BRE,EDDW,53.0475006104,8.78666973114
355,Frankfurt-Hahn Airport,Hahn,Germany,HHN,EDFH,49.9487,7.26389
356,Mannheim-City Airport,Mannheim,Germany,MHG,EDFM,49.473057,8.514167
362,Hamburg-Finkenwerder Airport,Hamburg,Germany,XFW,EDHI,53.5352783203125,9.835556030273438
364,Lübeck Blankensee Airport,Luebeck,Germany,LBC,EDHL,53.8054008484,10.7192001343
371,Paderborn Lippstadt Airport,Paderborn,Germany,PAD,EDLP,51.6141014099,8.616319656369999
373,Dortmund Airport,Dortmund,Germany,DTM,EDLW,51.51829910279999,7.61223983765
374,Augsburg Airport,Augsburg,Germany,AGB,EDMA,48.425278,10.931667
382,Friedrichshafen Airport,Friedrichshafen,Germany,FDH,EDNY,47.6712989807,9.51148986816
393,Zweibrücken Airport,Zweibruecken,Germany,ZQW,EDRZ,49.2094,7.40056
400,Kassel-Calden Airport,Kassel,Germany,KSF,EDVK,51.417273,9.384967
410,Westerland Sylt Airport,Westerland,Germany,GWT,EDXW,54.9132003784,8.34047031403
413,Kuressaare Airport,Kuressaare,Estonia,URE,EEKE,58.22990036010742,22.50950050354004
415,Lennart Meri Tallinn Airport,Tallinn-ulemiste International,Estonia,TLL,EETN,59.41329956049999,24.8327999115
416,Tartu Airport,Tartu,Estonia,TAY,EETU,58.3074989319,26.690399169900004
421,Helsinki Vantaa Airport,Helsinki,Finland,HEL,EFHK,60.317199707031,24.963300704956
428,Ivalo Airport,Ivalo,Finland,IVL,EFIV,68.607299804688,27.405300140381
429,Joensuu Airport,Joensuu,Finland,JOE,EFJO,62.662899017334,29.607500076294
430,Jyvaskyla Airport,Jyvaskyla,Finland,JYV,EFJY,62.399501800537,25.678300857544
432,Kemi-Tornio Airport,Kemi,Finland,KEM,EFKE,65.778701782227,24.582099914551
433,Kajaani Airport,Kajaani,Finland,KAJ,EFKI,64.285499572754,27.692399978638
435,Kokkola-Pietarsaari Airport,Kruunupyy,Finland,KOK,EFKK,63.721199035645,23.143100738525
437,Kuusamo Airport,Kuusamo,Finland,KAO,EFKS,65.987602233887,29.239400863647
438,Kittilä Airport,Kittila,Finland,KTT,EFKT,67.700996398926,24.846799850464
439,Kuopio Airport,Kuopio,Finland,KUO,EFKU,63.007099151611,27.797800064087
441,Lappeenranta Airport,Lappeenranta,Finland,LPP,EFLP,61.044601,28.144743
442,Mariehamn Airport,Mariehamn,Finland,MHQ,EFMA,60.122200012207,19.898199081421
446,Oulu Airport,Oulu,Finland,OUL,EFOU,64.930099487305,25.354600906372
448,Pori Airport,Pori,Finland,POR,EFPO,61.461700439453,21.799999237061
453,Rovaniemi Airport,Rovaniemi,Finland,RVN,EFRO,66.564796447754,25.830400466919
455,Savonlinna Airport,Savonlinna,Finland,SVL,EFSA,61.943099975586,28.945100784302
458,Tampere-Pirkkala Airport,Tampere,Finland,TMP,EFTP,61.414100646973,23.604400634766
460,Turku Airport,Turku,Finland,TKU,EFTU,60.514099121094,22.262800216675
462,Vaasa Airport,Vaasa,Finland,VAA,EFVA,63.050701141357,21.762199401855
465,Belfast International Airport,Belfast,United Kingdom,BFS,EGAA,54.6575012207,-6.21582984924
467,George Best Belfast City Airport,Belfast,United Kingdom,BHD,EGAC,54.61809921264648,-5.872499942779541
468,City of Derry Airport,Londonderry,United Kingdom,LDY,EGAE,55.04280090332031,-7.161109924316406
469,Birmingham International Airport,Birmingham,United Kingdom,BHX,EGBB,52.4538993835,-1.74802994728
472,Gloucestershire Airport,Golouchestershire,United Kingdom,GLO,EGBJ,51.89419937133789,-2.167220115661621
478,Manchester Airport,Manchester,United Kingdom,MAN,EGCC,53.35369873046875,-2.2749500274658203
481,Newquay Cornwall Airport,Newquai,United Kingdom,NQY,EGHQ,50.44060134887695,-4.995409965515137
488,Cardiff International Airport,Cardiff,United Kingdom,CWL,EGFF,51.39670181274414,-3.343329906463623
490,Bristol Airport,Bristol,United Kingdom,BRS,EGGD,51.382702,-2.71909
491,Liverpool John Lennon Airport,Liverpool,United Kingdom,LPL,EGGP,53.33359909057617,-2.849720001220703
492,London Luton Airport,London,United Kingdom,LTN,EGGW,51.874698638916016,-0.3683330118656158
494,Bournemouth Airport,Bournemouth,United Kingdom,BOH,EGHH,50.77999877929688,-1.8424999713897705
495,Southampton Airport,Southampton,United Kingdom,SOU,EGHI,50.95029830932617,-1.3567999601364136
497,Alderney Airport,Alderney,Guernsey,ACI,EGJA,49.706104,-2.21472
498,Guernsey Airport,Guernsey,Guernsey,GCI,EGJB,49.435001373291016,-2.601969957351685
499,Jersey Airport,Jersey,Jersey,JER,EGJJ,49.20790100097656,-2.195509910583496
502,London Gatwick Airport,London,United Kingdom,LGW,EGKK,51.148102,-0.190278
503,London City Airport,London,United Kingdom,LCY,EGLC,51.505299,0.055278
507,London Heathrow Airport,London,United Kingdom,LHR,EGLL,51.4706,-0.461941
508,Southend Airport,Southend,United Kingdom,SEN,EGMC,51.5713996887207,0.6955559849739075
514,Blackpool International Airport,Blackpool,United Kingdom,BLK,EGNH,53.77170181274414,-3.0286099910736084
515,Humberside Airport,Humberside,United Kingdom,HUY,EGNJ,53.57440185546875,-0.350832998752594
517,Leeds Bradford Airport,Leeds,United Kingdom,LBA,EGNM,53.86589813232422,-1.6605700254440308
519,Hawarden Airport,Hawarden,United Kingdom,CEG,EGNR,53.1781005859375,-2.977780103683472
520,Isle of Man Airport,Isle Of Man,Isle of Man,IOM,EGNS,54.08330154418945,-4.623889923095703
521,Newcastle Airport,Newcastle,United Kingdom,NCL,EGNT,55.03749847412109,-1.6916699409484863
522,Durham Tees Valley Airport,Teesside,United Kingdom,MME,EGNV,54.50920104980469,-1.4294099807739258
523,East Midlands Airport,East Midlands,United Kingdom,EMA,EGNX,52.8311004639,-1.32806003094
529,Kirkwall Airport,Kirkwall,United Kingdom,KOI,EGPA,58.957801818847656,-2.9049999713897705
530,Sumburgh Airport,Sumburgh,United Kingdom,LSI,EGPB,59.87889862060547,-1.295560002326965
531,Wick Airport,Wick,United Kingdom,WIC,EGPC,58.45890045166016,-3.09306001663208
532,Aberdeen Dyce Airport,Aberdeen,United Kingdom,ABZ,EGPD,57.20190048217773,-2.197779893875122
533,Inverness Airport,Inverness,United Kingdom,INV,EGPE,57.54249954223633,-4.047500133514404
534,Glasgow International Airport,Glasgow,United Kingdom,GLA,EGPF,55.8718986511,-4.43306016922
535,Edinburgh Airport,Edinburgh,United Kingdom,EDI,EGPH,55.95000076293945,-3.372499942779541
536,Islay Airport,Islay,United Kingdom,ILY,EGPI,55.68190002441406,-6.256669998168945
537,Glasgow Prestwick Airport,Prestwick,United Kingdom,PIK,EGPK,55.5093994140625,-4.586669921875
538,Benbecula Airport,Benbecula,United Kingdom,BEB,EGPL,57.48109817504883,-7.362780094146728
540,Dundee Airport,Dundee,United Kingdom,DND,EGPN,56.45249938964844,-3.025830030441284
541,Stornoway Airport,Stornoway,United Kingdom,SYY,EGPO,58.215599060058594,-6.331110000610352
542,Tiree Airport,Tiree,United Kingdom,TRE,EGPU,56.49919891357422,-6.869170188903809
547,Norwich International Airport,Norwich,United Kingdom,NWI,EGSH,52.6758003235,1.28278005123
548,London Stansted Airport,London,United Kingdom,STN,EGSS,51.8849983215,0.234999999404
552,Exeter International Airport,Exeter,United Kingdom,EXT,EGTE,50.73440170288086,-3.4138898849487305
579,Mount Pleasant Airport,Mount Pleasant,Falkland Islands,MPN,EGYP,-51.82279968261719,-58.44720077514648
580,Amsterdam Airport Schiphol,Amsterdam,Netherlands,AMS,EHAM,52.308601,4.76389
582,Maastricht Aachen Airport,Maastricht,Netherlands,MST,EHBK,50.911701,5.77014
585,Eindhoven Airport,Eindhoven,Netherlands,EIN,EHEH,51.4500999451,5.37452983856
586,Eelde Airport,Groningen,Netherlands,GRQ,EHGG,53.1197013855,6.57944011688
591,Rotterdam The Hague Airport,Rotterdam,Netherlands,RTM,EHRD,51.956902,4.43722
596,Cork Airport,Cork,Ireland,ORK,EICK,51.84130096435547,-8.491109848022461
599,Dublin Airport,Dublin,Ireland,DUB,EIDW,53.421299,-6.27007
600,Ireland West Knock Airport,Connaught,Ireland,NOC,EIKN,53.910301208496094,-8.818490028381348
601,Kerry Airport,Kerry,Ireland,KIR,EIKY,52.18090057373047,-9.52377986907959
603,Shannon Airport,Shannon,Ireland,SNN,EINN,52.702,-8.92482
605,Waterford Airport,Waterford,Ireland,WAT,EIWF,52.187198638916016,-7.086959838867188
607,Aarhus Airport,Aarhus,Denmark,AAR,EKAH,56.2999992371,10.619000434899998
608,Billund Airport,Billund,Denmark,BLL,EKBI,55.7402992249,9.15178012848
609,Copenhagen Kastrup Airport,Copenhagen,Denmark,CPH,EKCH,55.617900848389,12.656000137329
610,Esbjerg Airport,Esbjerg,Denmark,EBJ,EKEB,55.525902,8.5534
612,Karup Airport,Karup,Denmark,KRP,EKKA,56.29750061035156,9.124629974365234
618,Bornholm Airport,Ronne,Denmark,RNN,EKRN,55.06330108642578,14.759599685668944
619,Sønderborg Airport,Soenderborg,Denmark,SGD,EKSB,54.96440124511719,9.791729927062988
625,Vagar Airport,Vagar,Faroe Islands,FAE,EKVG,62.0635986328125,-7.277219772338867
628,Aalborg Airport,Aalborg,Denmark,AAL,EKYT,57.0927589138,9.84924316406
629,Luxembourg-Findel International Airport,Luxemburg,Luxembourg,LUX,ELLX,49.6233333,6.2044444
630,Ålesund Airport,Alesund,Norway,AES,ENAL,62.5625,6.119699954986572
631,Andøya Airport,Andoya,Norway,ANX,ENAN,69.292503356934,16.144199371338
632,Alta Airport,Alta,Norway,ALF,ENAT,69.976097106934,23.371700286865
634,Brønnøysund Airport,Bronnoysund,Norway,BNN,ENBN,65.461097717285,12.217499732971
635,Bodø Airport,Bodo,Norway,BOO,ENBO,67.26920318603516,14.365300178527832
636,Bergen Airport Flesland,Bergen,Norway,BGO,ENBR,60.29339981,5.218140125
637,Båtsfjord Airport,Batsfjord,Norway,BJF,ENBS,70.60050201416,29.691400527954
638,Kristiansand Airport,Kristiansand,Norway,KRS,ENCN,58.204201,8.08537
640,Bardufoss Airport,Bardufoss,Norway,BDU,ENDU,69.055801391602,18.540399551392
641,"Harstad/Narvik Airport, Evenes",Harstad/Narvik,Norway,EVE,ENEV,68.491302490234,16.678100585938
642,Leirin Airport,Fagernes,Norway,VDB,ENFG,61.015598297119,9.2880601882935
643,Florø Airport,Floro,Norway,FRO,ENFL,61.583599090576,5.0247201919556
645,Haugesund Airport,Haugesund,Norway,HAU,ENHD,59.34529876709,5.2083601951599
646,Hasvik Airport,Hasvik,Norway,HAA,ENHK,70.486701965332,22.139699935913
647,Kristiansund Airport (Kvernberget),Kristiansund,Norway,KSU,ENKB,63.111801147461,7.824520111084
649,Kirkenes Airport (Høybuktmoen),Kirkenes,Norway,KKN,ENKR,69.725799560547,29.891300201416
651,Molde Airport,Molde,Norway,MOL,ENML,62.744701385498,7.2624998092651
652,Mosjøen Airport (Kjærstad),Mosjoen,Norway,MJF,ENMS,65.783996582031,13.214900016785
653,Banak Airport,Lakselv,Norway,LKL,ENNA,70.068801879883,24.973499298096
655,Ørland Airport,Orland,Norway,OLA,ENOL,63.69889831542969,9.604000091552734
656,Røros Airport,Roros,Norway,RRS,ENRO,62.578399658203,11.342300415039
657,"Moss Airport, Rygge",Rygge,Norway,RYG,ENRY,59.378817,10.785439
658,"Svalbard Airport, Longyear",Svalbard,Norway,LYR,ENSB,78.246101379395,15.465600013733
659,Skien Airport,Skien,Norway,SKE,ENSN,59.185001373291016,9.566940307617188
660,Stord Airport,Stord,Norway,SRP,ENSO,59.791900634765625,5.340849876403809
662,Sandnessjøen Airport (Stokka),Sandnessjoen,Norway,SSJ,ENST,65.956802368164,12.468899726868
663,"Tromsø Airport,",Tromso,Norway,TOS,ENTC,69.68329620361328,18.91889953613281
664,"Sandefjord Airport, Torp",Sandefjord,Norway,TRF,ENTO,59.1866989136,10.258600235
665,Trondheim Airport Værnes,Trondheim,Norway,TRD,ENVA,63.4578018,10.9239998
666,Stavanger Airport Sola,Stavanger,Norway,SVG,ENZV,58.876701354,5.6377801895
668,Gdańsk Lech Wałęsa Airport,Gdansk,Poland,GDN,EPGD,54.37760162353516,18.46619987487793
669,Kraków John Paul II International Airport,Krakow,Poland,KRK,EPKK,50.077702,19.7848
671,Katowice International Airport,Katowice,Poland,KTW,EPKT,50.4743,19.08
674,Poznań-Ławica Airport,Poznan,Poland,POZ,EPPO,52.4210014343,16.8262996674
675,Rzeszów-Jasionka Airport,Rzeszow,Poland,RZE,EPRZ,50.1100006104,22.0189990997
676,"Szczecin-Goleniów ""Solidarność"" Airport",Szczecin,Poland,SZZ,EPSC,53.584701538100006,14.9021997452
679,Warsaw Chopin Airport,Warsaw,Poland,WAW,EPWA,52.1656990051,20.9671001434
680,Copernicus Wrocław Airport,Wroclaw,Poland,WRO,EPWR,51.1026992798,16.885799408
685,Ronneby Airport,Ronneby,Sweden,RNB,ESDF,56.266700744629,15.265000343323
687,Gothenburg-Landvetter Airport,Gothenborg,Sweden,GOT,ESGG,57.662799835205,12.279800415039
688,Jönköping Airport,Joenkoeping,Sweden,JKG,ESGJ,57.757598876953125,14.068699836730955
691,Gothenburg City Airport,Gothenborg,Sweden,GSE,ESGP,57.7747,11.8704
693,Trollhättan-Vänersborg Airport,Trollhattan,Sweden,THN,ESGT,58.31809997558594,12.345000267028809
698,Mora Airport,Mora,Sweden,MXX,ESKM,60.957901,14.5114
699,Stockholm Skavsta Airport,Stockholm,Sweden,NYO,ESKN,58.78860092163086,16.912200927734375
703,Kristianstad Airport,Kristianstad,Sweden,KID,ESMK,55.92169952392578,14.08549976348877
707,Kalmar Airport,Kalkmar,Sweden,KLR,ESMQ,56.68550109863281,16.287599563598633
708,Malmö Sturup Airport,Malmoe,Sweden,MMX,ESMS,55.536305364,13.3761978149
709,Halmstad Airport,Halmstad,Sweden,HAD,ESMT,56.69110107421875,12.820199966430664
711,Växjö Kronoberg Airport,Vaxjo,Sweden,VXO,ESMX,56.92910003662109,14.727999687194824
714,Sveg Airport,Sveg,Sweden,EVG,ESND,62.04779815673828,14.422900199890137
715,Gällivare Airport,Gallivare,Sweden,GEV,ESNG,67.13240051269531,20.814599990844727
718,Kramfors Sollefteå Airport,Kramfors,Sweden,KRF,ESNK,63.04859924316406,17.76889991760254
719,Lycksele Airport,Lycksele,Sweden,LYC,ESNL,64.54830169677734,18.71619987487793
721,Sundsvall-Härnösand Airport,Sundsvall,Sweden,SDL,ESNN,62.528099060058594,17.443899154663086
722,Örnsköldsvik Airport,Ornskoldsvik,Sweden,OER,ESNO,63.40829849243164,18.989999771118164
724,Kiruna Airport,Kiruna,Sweden,KRN,ESNQ,67.821998596191,20.336799621582
726,Skellefteå Airport,Skelleftea,Sweden,SFT,ESNS,64.62480163574219,21.07690048217773
728,Umeå Airport,Umea,Sweden,UME,ESNU,63.791801452637,20.282800674438
729,Vilhelmina Airport,Vilhelmina,Sweden,VHM,ESNV,64.5791015625,16.833599090576172
730,Arvidsjaur Airport,Arvidsjaur,Sweden,AJR,ESNX,65.59030151367188,19.28190040588379
733,Stockholm Västerås Airport,Vasteras,Sweden,VST,ESOW,59.58940124511719,16.63360023498535
734,Luleå Airport,Lulea,Sweden,LLA,ESPA,65.543800354004,22.121999740601
737,Stockholm-Arlanda Airport,Stockholm,Sweden,ARN,ESSA,59.651901245117,17.918600082397
738,Stockholm-Bromma Airport,Stockholm,Sweden,BMA,ESSB,59.354400634765625,17.941699981689453
742,Linköping City Airport,Linkoeping,Sweden,LPI,ESSL,58.4062004089,15.6805000305
743,Norrköping Airport,Norrkoeping,Sweden,NRK,ESSP,58.58629989624024,16.250600814819336
746,Visby Airport,Visby,Sweden,VBY,ESSV,57.662799835205,18.346200942993
772,Rostock-Laage Airport,Laage,Germany,RLG,ETNL,53.9182014465,12.2783002853
794,Bram Fischer International Airport,Bloemfontein,South Africa,BFN,FABL,-29.0926990509,26.302400589
797,Cape Town International Airport,Cape Town,South Africa,CPT,FACT,-33.9648017883,18.6016998291
799,King Shaka International Airport,Durban,South Africa,DUR,FALE,-29.6144444444,31.1197222222
800,Ben Schoeman Airport,East London,South Africa,ELS,FAEL,-33.0355987549,27.8258991241
804,George Airport,George,South Africa,GRJ,FAGG,-34.0056,22.378902
811,Hoedspruit Air Force Base Airport,Hoedspruit,South Africa,HDS,FAHS,-24.3686008453,31.0487003326
813,OR Tambo International Airport,Johannesburg,South Africa,JNB,FAOR,-26.1392,28.246
815,Kimberley Airport,Kimberley,South Africa,KIM,FAKM,-28.802799224900003,24.7651996613
820,Lanseria Airport,Johannesburg,South Africa,HLA,FALA,-25.9384994507,27.9260997772
827,Margate Airport,Margate,South Africa,MGH,FAMG,-30.8574008942,30.343000412
838,Port Elizabeth Airport,Port Elizabeth,South Africa,PLZ,FAPE,-33.9849014282,25.6173000336
840,Hendrik Van Eck Airport,Phalaborwa,South Africa,PHW,FAPH,-23.9372005463,31.1553993225
843,Pietermaritzburg Airport,Pietermaritzburg,South Africa,PZB,FAPM,-29.6490001678,30.3987007141
845,Polokwane International Airport,Potgietersrus,South Africa,PTG,FAPP,-23.845269,29.458615
849,Richards Bay Airport,Richard's Bay,South Africa,RCB,FARB,-28.740999221800003,32.0920982361
865,Pierre Van Ryneveld Airport,Upington,South Africa,UTN,FAUP,-28.39909935,21.2602005005
866,K. D. Matanzima Airport,Umtata,South Africa,UTT,FAUT,-31.5463631849,28.6733551025
877,Francistown Airport,Francistown,Botswana,FRW,FBFT,-21.15959930419922,27.47450065612793
879,Kasane Airport,Kasane,Botswana,BBK,FBKE,-17.83289909362793,25.162399291992188
880,Maun Airport,Maun,Botswana,MUB,FBMN,-19.97260093688965,23.43110084533692
881,Sir Seretse Khama International Airport,Gaberone,Botswana,GBE,FBSK,-24.555201,25.9182
883,Maya-Maya Airport,Brazzaville,Congo (Brazzaville),BZV,FCBB,-4.251699924468994,15.253000259399414
886,Pointe Noire Airport,Pointe-noire,Congo (Brazzaville),PNR,FCPP,-4.816030025482178,11.88659954071045
887,Matsapha Airport,Manzini,Swaziland,MTS,FDMS,-26.52899932861328,31.3075008392334
888,Bangui M'Poko International Airport,Bangui,Central African Republic,BGF,FEFF,4.39847993850708,18.51880073547364
890,Bata Airport,Bata,Equatorial Guinea,BSG,FGBT,1.9054700136184688,9.80568027496338
891,Malabo Airport,Malabo,Equatorial Guinea,SSG,FGSL,3.755270004272461,8.708720207214355
893,Sir Seewoosagur Ramgoolam International Airport,Plaisance,Mauritius,MRU,FIMP,-20.430201,57.683601
894,Sir Charles Gaetan Duval Airport,Rodriguez Island,Mauritius,RRG,FIMR,-19.7577,63.361
897,Douala International Airport,Douala,Cameroon,DLA,FKKD,4.0060801506,9.71947956085
898,Salak Airport,Maroua,Cameroon,MVR,FKKL,10.45139980316162,14.257399559020996
900,N'Gaoundéré Airport,N'gaoundere,Cameroon,NGE,FKKN,7.357009887695312,13.559200286865234
901,Garoua International Airport,Garoua,Cameroon,GOU,FKKR,9.33588981628418,13.370100021362305
906,Livingstone Airport,Livingstone,Zambia,LVI,FLLI,-17.821800231933594,25.82270050048828
907,Kenneth Kaunda International Airport Lusaka,Lusaka,Zambia,LUN,FLLS,-15.3308000565,28.4526004791
908,Mfuwe Airport,Mfuwe,Zambia,MFU,FLMF,-13.258899688720703,31.936599731445312
910,Simon Mwansa Kapwepwe International Airport,Ndola,Zambia,NLA,FLND,-12.998100280762,28.66489982605
912,Prince Said Ibrahim International Airport,Moroni,Comoros,HAH,FMCH,-11.5337,43.2719
915,Dzaoudzi Pamandzi International Airport,Dzaoudzi,Mayotte,DZA,FMCZ,-12.804699897766112,45.28110122680664
916,Roland Garros Airport,St.-denis,Reunion,RUN,FMEE,-20.88710021972656,55.51029968261719
917,Pierrefonds Airport,St.-pierre,Reunion,ZSE,FMEP,-21.320899963378903,55.42499923706055
918,Ivato Airport,Antananarivo,Madagascar,TNR,FMMI,-18.7969,47.478802
920,Sainte Marie Airport,Sainte Marie,Madagascar,SMS,FMMS,-17.093900680541992,49.815799713134766
921,Toamasina Airport,Toamasina,Madagascar,TMM,FMMT,-18.10950088500977,49.39250183105469
922,Morondava Airport,Morondava,Madagascar,MOQ,FMMV,-20.28470039367676,44.31760025024414
923,Arrachart Airport,Antsiranana,Madagascar,DIE,FMNA,-12.34939956665039,49.29169845581055
924,Mananara Nord Airport,Mananara,Madagascar,WMR,FMNC,-16.16390037536621,49.77379989624024
927,Antsirabato Airport,Antalaha,Madagascar,ANM,FMNH,-14.99940013885498,50.3202018737793
929,Amborovy Airport,Mahajanga,Madagascar,MJN,FMNM,-15.6668417421,46.3512325287
930,Fascene Airport,Nosy-be,Madagascar,NOS,FMNN,-13.3121004105,48.3148002625
932,Maroantsetra Airport,Maroantsetra,Madagascar,WMN,FMNR,-15.436699867248535,49.68830108642578
933,Sambava Airport,Sambava,Madagascar,SVB,FMNS,-14.278599739074709,50.17470169067383
937,Tôlanaro Airport,Tolagnaro,Madagascar,FTU,FMSD,-25.03809928894043,46.95610046386719
943,Toliara Airport,Toliara,Madagascar,TLE,FMST,-23.383399963378903,43.72850036621094
944,Mbanza Congo Airport,M'banza-congo,Angola,SSY,FNBC,-6.269899845123291,14.246999740600586
946,Cabinda Airport,Cabinda,Angola,CAB,FNCA,-5.59699010848999,12.188400268554688
948,Nova Lisboa Airport,Huambo,Angola,NOV,FNHU,-12.808899879455566,15.760499954223633
949,Kuito Airport,Kuito,Angola,SVP,FNKU,-12.404600143433,16.947399139404
951,Quatro de Fevereiro Airport,Luanda,Angola,LAD,FNLU,-8.85837,13.2312
952,Malanje Airport,Malanje,Angola,MEG,FNMA,-9.525090217590332,16.312400817871094
953,Menongue Airport,Menongue,Angola,SPP,FNME,-14.657600402832031,17.71980094909668
957,Saurimo Airport,Saurimo,Angola,VHC,FNSA,-9.689069747924805,20.431900024414062
958,Soyo Airport,Soyo,Angola,SZA,FNSO,-6.141089916229248,12.371800422668455
959,Lubango Airport,Lubango,Angola,SDD,FNUB,-14.924699783325195,13.574999809265137
960,Luena Airport,Luena,Angola,LUO,FNUE,-11.768099784851074,19.8976993560791
967,Port Gentil Airport,Port Gentil,Gabon,POG,FOOG,-0.7117390036582947,8.754380226135254
970,Libreville Leon M'ba International Airport,Libreville,Gabon,LBV,FOOL,0.458600014448,9.4122800827
973,São Tomé International Airport,Sao Tome,Sao Tome and Principe,TMS,FPST,0.3781749904155731,6.712150096893311
974,Beira Airport,Beira,Mozambique,BEW,FQBR,-19.79640007019043,34.90760040283203
976,Inhambane Airport,Inhambane,Mozambique,INH,FQIN,-23.876399993896484,35.40850067138672
977,Lichinga Airport,Lichinga,Mozambique,VXC,FQLC,-13.274,35.2663
979,Maputo Airport,Maputo,Mozambique,MPM,FQMA,-25.920799,32.572601
984,Nampula Airport,Nampula,Mozambique,APL,FQNP,-15.105600357055664,39.28179931640625
985,Pemba Airport,Pemba,Mozambique,POL,FQPB,-12.991762161254885,40.52401351928711
986,Quelimane Airport,Quelimane,Mozambique,UEL,FQQL,-17.855499267578125,36.86909866333008
988,Chingozi Airport,Tete,Mozambique,TET,FQTT,-16.104799270629883,33.64020156860352
990,Vilankulo Airport,Vilankulu,Mozambique,VNX,FQVL,-22.018400192260746,35.31330108642578
994,Seychelles International Airport,Mahe,Seychelles,SEZ,FSIA,-4.67434,55.521801
995,Praslin Airport,Praslin,Seychelles,PRI,FSPP,-4.3192901611328125,55.69139862060547
999,N'Djamena International Airport,N'djamena,Chad,NDJ,FTTJ,12.1337,15.034
1001,Joshua Mqabuko Nkomo International Airport,Bulawayo,Zimbabwe,BUQ,FVBU,-20.017401,28.617901
1004,Victoria Falls International Airport,Victoria Falls,Zimbabwe,VFA,FVFA,-18.09589958190918,25.839000701904297
1005,Robert Gabriel Mugabe International Airport,Harare,Zimbabwe,HRE,FVHA,-17.931801,31.0928
1013,Chileka International Airport,Blantyre,Malawi,BLZ,FWCL,-15.679100036621094,34.9739990234375
1016,Lilongwe International Airport,Lilongwe,Malawi,LLW,FWKI,-13.7894001007,33.78099823
1018,Moshoeshoe I International Airport,Maseru,Lesotho,MSU,FXMM,-29.462299346923828,27.552499771118164
1020,Ndjili International Airport,Kinshasa,Congo (Kinshasa),FIH,FZAA,-4.38575,15.4446
1026,Mbandaka Airport,Mbandaka,Congo (Kinshasa),MDK,FZEA,0.0226000007242,18.2887001038
1028,Gemena Airport,Gemena,Congo (Kinshasa),GMA,FZFK,3.23536992073,19.7712993622
1031,Bangoka International Airport,Kisangani,Congo (Kinshasa),FKI,FZIC,0.481638997793,25.3379993439
1032,Matari Airport,Isiro,Congo (Kinshasa),IRP,FZJH,2.8276100158691406,27.58830070495605
1033,Bunia Airport,Bunia,Congo (Kinshasa),BUX,FZKA,1.5657199621200562,30.22080039978028
1035,Bukavu Kavumu Airport,Bukavu/kavumu,Congo (Kinshasa),BKY,FZMA,-2.3089799880981445,28.808799743652344
1036,Goma International Airport,Goma,Congo (Kinshasa),GOM,FZNA,-1.670809984207153,29.238500595092773
1037,Kindu Airport,Kindu,Congo (Kinshasa),KND,FZOA,-2.91917991638,25.9153995514
1038,Lubumbashi International Airport,Lubumashi,Congo (Kinshasa),FBM,FZQA,-11.5913000107,27.5308990479
1040,Kalemie Airport,Kalemie,Congo (Kinshasa),FMI,FZRF,-5.8755598068237305,29.25
1042,Kananga Airport,Kananga,Congo (Kinshasa),KGA,FZUA,-5.90005016327,22.4692001343
1043,Mbuji Mayi Airport,Mbuji-mayi,Congo (Kinshasa),MJM,FZWA,-6.121240139010001,23.5690002441
1044,Modibo Keita International Airport,Bamako,Mali,BKO,GABS,12.5335,-7.94994
1050,Banjul International Airport,Banjul,Gambia,BJL,GBYD,13.338000297546388,-16.65220069885254
1051,Fuerteventura Airport,Fuerteventura,Spain,FUE,GCFV,28.452699661254883,-13.863800048828123
1052,Hierro Airport,Hierro,Spain,VDE,GCHI,27.81480026245117,-17.887100219726562
1053,La Palma Airport,Santa Cruz De La Palma,Spain,SPC,GCLA,28.626499,-17.7556
1054,Gran Canaria Airport,Gran Canaria,Spain,LPA,GCLP,27.931900024414062,-15.38659954071045
1055,Lanzarote Airport,Arrecife,Spain,ACE,GCRR,28.945499,-13.6052
1056,Tenerife South Airport,Tenerife,Spain,TFS,GCTS,28.044500351,-16.5725002289
1057,Tenerife Norte Airport,Tenerife,Spain,TFN,GCXO,28.4827003479,-16.3414993286
1058,Melilla Airport,Melilla,Spain,MLN,GEML,35.279800415,-2.9562599659
1059,Lungi International Airport,Freetown,Sierra Leone,FNA,GFLL,8.61644,-13.1955
1062,Spriggs Payne Airport,Monrovia,Liberia,MLW,GLMR,6.289060115814209,-10.758700370788574
1063,Roberts International Airport,Monrovia,Liberia,ROB,GLRB,6.23379,-10.3623
1064,Al Massira Airport,Agadir,Morocco,AGA,GMAD,30.325000762939453,-9.41306972503662
1065,Tan Tan Airport,Tan Tan,Morocco,TTA,GMAT,28.44820022583008,-11.161299705505373
1066,Saïss Airport,Fes,Morocco,FEZ,GMFF,33.9272994995,-4.977960109709999
1070,Angads Airport,Oujda,Morocco,OUD,GMFO,34.787200927734375,-1.92399001121521
1072,Rabat-Salé Airport,Rabat,Morocco,RBA,GMME,34.051498,-6.75152
1074,Mohammed V International Airport,Casablanca,Morocco,CMN,GMMN,33.36750030517578,-7.589970111846924
1075,Menara Airport,Marrakech,Morocco,RAK,GMMX,31.6068992615,-8.03629970551
1077,Ouarzazate Airport,Ouarzazate,Morocco,OZZ,GMMZ,30.9391002655,-6.909430027010001
1078,Cherif Al Idrissi Airport,Al Hociema,Morocco,AHU,GMTA,35.177101135253906,-3.83951997756958
1079,Saniat R'mel Airport,Tetouan,Morocco,TTU,GMTN,35.594299316406,-5.320020198822
1080,Ibn Batouta Airport,Tanger,Morocco,TNG,GMTT,35.726898193400004,-5.91689014435
1081,Ziguinchor Airport,Ziguinchor,Senegal,ZIG,GOGG,12.5556,-16.281799
1082,Cap Skirring Airport,Cap Skiring,Senegal,CSK,GOGS,12.39533,-16.748
1084,Léopold Sédar Senghor International Airport,Dakar,Senegal,DKR,GOOY,14.739700317382812,-17.49020004272461
1094,Nouakchott–Oumtounsy International Airport,Nouakschott,Mauritania,NKC,GQNO,18.31,-15.9697222
1097,Nouadhibou International Airport,Nouadhibou,Mauritania,NDB,GQPP,20.9330997467041,-17.030000686645508
1102,Amílcar Cabral International Airport,Amilcar Cabral,Cape Verde,SID,GVAC,16.7414,-22.9494
1103,Rabil Airport,Boa Vista,Cape Verde,BVC,GVBA,16.136499404907227,-22.888900756835938
1104,Maio Airport,Maio,Cape Verde,MMO,GVMA,15.15590000152588,-23.213699340820312
1105,Preguiça Airport,Sao Nocolau Island,Cape Verde,SNE,GVSN,16.58839988708496,-24.28470039367676
1106,São Pedro Airport,Sao Vicente Island,Cape Verde,VXE,GVSV,16.833200454711914,-25.055299758911133
1107,Addis Ababa Bole International Airport,Addis Ababa,Ethiopia,ADD,HAAB,8.97789001465,38.7993011475
1109,Arba Minch Airport,Arba Minch,Ethiopia,AMH,HAAM,6.0393900871276855,37.59049987792969
1110,Axum Airport,Axum,Ethiopia,AXU,HAAX,14.14680004119873,38.77280044555664
1111,Bahir Dar Airport,Bahar Dar,Ethiopia,BJR,HABD,11.608099937438965,37.32160186767578
1112,Aba Tenna Dejazmach Yilma International Airport,Dire Dawa,Ethiopia,DIR,HADR,9.624699592590332,41.85419845581055
1113,Gambella Airport,Gambella,Ethiopia,GMB,HAGM,8.12876033782959,34.5630989074707
1114,Gonder Airport,Gondar,Ethiopia,GDQ,HAGN,12.51990032196045,37.43399810791016
1116,Jimma Airport,Jimma,Ethiopia,JIM,HAJM,7.66609001159668,36.81660079956055
1117,Lalibella Airport,Lalibella,Ethiopia,LLI,HALL,11.975000381469728,38.97999954223633
1118,Mekele Airport,Makale,Ethiopia,MQX,HAMK,13.467399597167969,39.53350067138672
1119,Asosa Airport,Asosa,Ethiopia,ASO,HASO,10.018500328063965,34.586299896240234
1120,Bujumbura International Airport,Bujumbura,Burundi,BJM,HBBA,-3.3240199089050293,29.318500518798828
1121,Egal International Airport,Hargeisa,Somalia,HGA,HCMH,9.518170356750488,44.08879852294922
1122,Berbera Airport,Berbera,Somalia,BBO,HCMI,10.389200210571287,44.94110107421875
1127,Abu Simbel Airport,Abu Simbel,Egypt,ABS,HEBL,22.3759994507,31.611700058
1128,Cairo International Airport,Cairo,Egypt,CAI,HECA,30.12190055847168,31.40559959411621
1130,Hurghada International Airport,Hurghada,Egypt,HRG,HEGN,27.178300857543945,33.799400329589844
1132,Luxor International Airport,Luxor,Egypt,LXR,HELX,25.671,32.7066
1136,Aswan International Airport,Aswan,Egypt,ASW,HESN,23.9643993378,32.8199996948
1138,Eldoret International Airport,Eldoret,Kenya,EDL,HKEL,0.4044579863548279,35.23889923095703
1140,Kisumu Airport,Kisumu,Kenya,KIS,HKKI,-0.0861390009522438,34.72890090942383
1141,Kitale Airport,Kitale,Kenya,KTL,HKKT,0.9719889760017396,34.95859909057617
1143,Lodwar Airport,Lodwar,Kenya,LOK,HKLO,3.1219699382781982,35.608699798583984
1145,Mombasa Moi International Airport,Mombasa,Kenya,MBA,HKMO,-4.034830093383789,39.594200134277344
1147,Nairobi Wilson Airport,Nairobi,Kenya,WIL,HKNW,-1.321720004081726,36.81480026245117
1149,Wajir Airport,Wajir,Kenya,WJR,HKWJ,1.73324,40.091599
1152,Ghat Airport,Ghat,Libya,GHT,HLGT,25.1455993652,10.1426000595
1153,Kufra Airport,Kufra,Libya,AKF,HLKF,24.178699493408203,23.31399917602539
1154,Benina International Airport,Benghazi,Libya,BEN,HLLB,32.096801757799994,20.2695007324
1157,Tripoli International Airport,Tripoli,Libya,TIP,HLLT,32.6635017395,13.1590003967
1162,Ghadames East Airport,Ghadames,Libya,LTD,HLTD,30.15169906616211,9.715310096740724
1165,Kigali International Airport,Kigali,Rwanda,KGL,HRYR,-1.96863,30.1395
1166,Kamembe Airport,Kamembe,Rwanda,KME,HRZA,-2.462239980697632,28.907899856567383
1169,El Fasher Airport,El Fasher,Sudan,ELF,HSFS,13.61489963531494,25.32460021972656
1173,Juba International Airport,Juba,South Sudan,JUB,HSSJ,4.87201023102,31.6011009216
1175,Khartoum International Airport,Khartoum,Sudan,KRT,HSSS,15.589500427246094,32.553199768066406
1176,Arusha Airport,Arusha,Tanzania,ARK,HTAR,-3.3677899837493896,36.63330078125
1177,Julius Nyerere International Airport,Dar Es Salaam,Tanzania,DAR,HTDA,-6.87811,39.202599
1180,Kilimanjaro International Airport,Kilimanjaro,Tanzania,JRO,HTKJ,-3.42940998077,37.0745010376
1182,Mtwara Airport,Mtwara,Tanzania,MYW,HTMT,-10.339099884033203,40.18180084228516
1183,Mwanza Airport,Mwanza,Tanzania,MWZ,HTMW,-2.4444899559021,32.932701110839844
1186,Abeid Amani Karume International Airport,Zanzibar,Tanzania,ZNZ,HTZA,-6.22202,39.224899
1187,Entebbe International Airport,Entebbe,Uganda,EBB,HUEN,0.042386,32.443501
1190,Tirana International Airport Mother Teresa,Tirana,Albania,TIA,LATI,41.4146995544,19.7206001282
1191,Burgas Airport,Bourgas,Bulgaria,BOJ,LBBG,42.56959915161133,27.515199661254883
1193,Plovdiv International Airport,Plovdiv,Bulgaria,PDV,LBPD,42.067799,24.8508
1194,Sofia Airport,Sofia,Bulgaria,SOF,LBSF,42.69669342041016,23.411436080932617
1196,Varna Airport,Varna,Bulgaria,VAR,LBWN,43.232101,27.8251
1197,Larnaca International Airport,Larnaca,Cyprus,LCA,LCLK,34.875099182128906,33.624900817871094
1198,Paphos International Airport,Paphos,Cyprus,PFO,LCPH,34.71799850463867,32.48569869995117
1200,Dubrovnik Airport,Dubrovnik,Croatia,DBV,LDDU,42.5614013671875,18.268199920654297
1202,Osijek Airport,Osijek,Croatia,OSI,LDOS,45.46269989013672,18.810199737548828
1203,Pula Airport,Pula,Croatia,PUY,LDPL,44.89350128173828,13.922200202941896
1205,Rijeka Airport,Rijeka,Croatia,RJK,LDRI,45.21689987182617,14.570300102233888
1206,Split Airport,Split,Croatia,SPU,LDSP,43.53889846801758,16.29800033569336
1208,Zagreb Airport,Zagreb,Croatia,ZAG,LDZA,45.7429008484,16.0687999725
1209,Zadar Airport,Zadar,Croatia,ZAD,LDZD,44.108299,15.3467
1212,Alicante International Airport,Alicante,Spain,ALC,LEAL,38.28219985961914,-0.5581560134887695
1213,Almería International Airport,Almeria,Spain,LEI,LEAM,36.84389877319336,-2.3701000213623047
1214,Asturias Airport,Aviles,Spain,OVD,LEAS,43.5635986328125,-6.0346198081970215
1216,Bilbao Airport,Bilbao,Spain,BIO,LEBB,43.30110168457031,-2.9106099605560303
1218,Barcelona International Airport,Barcelona,Spain,BCN,LEBL,41.2971,2.07846
1219,Badajoz Airport,Badajoz,Spain,BJZ,LEBZ,38.891300201416016,-6.8213300704956055
1220,A Coruña Airport,La Coruna,Spain,LCG,LECO,43.302101,-8.37726
1222,Girona Airport,Gerona,Spain,GRO,LEGE,41.901000977,2.7605500221
1223,Federico Garcia Lorca Airport,Granada,Spain,GRX,LEGR,37.18870162963867,-3.777359962463379
1225,Ibiza Airport,Ibiza,Spain,IBZ,LEIB,38.8728981018,1.3731199502899998
1226,Jerez Airport,Jerez,Spain,XRY,LEJR,36.74459838867188,-6.060110092163086
1227,San Javier Airport,Murcia,Spain,MJV,LELC,37.775001525878906,-0.8123890161514282
1229,Adolfo Suárez Madrid–Barajas Airport,Madrid,Spain,MAD,LEMD,40.471926,-3.56264
1230,Málaga Airport,Malaga,Spain,AGP,LEMG,36.67490005493164,-4.499110221862793
1231,Menorca Airport,Menorca,Spain,MAH,LEMH,39.86259841918945,4.218649864196777
1234,Pamplona Airport,Pamplona,Spain,PNA,LEPP,42.77000045776367,-1.6463299989700315
1238,Salamanca Airport,Salamanca,Spain,SLM,LESA,40.95209884643555,-5.501989841461182
1242,San Sebastian Airport,San Sebastian,Spain,EAS,LESO,43.35649871826172,-1.7906099557876587
1243,Santiago de Compostela Airport,Santiago,Spain,SCQ,LEST,42.89630126953125,-8.415140151977539
1246,Valencia Airport,Valencia,Spain,VLC,LEVC,39.4893,-0.481625
1247,Valladolid Airport,Valladolid,Spain,VLL,LEVD,41.7061004639,-4.85194015503
1250,Vigo Airport,Vigo,Spain,VGO,LEVX,42.2318000793457,-8.62677001953125
1251,Santander Airport,Santander,Spain,SDR,LEXJ,43.42710113525391,-3.82000994682312
1253,Sevilla Airport,Sevilla,Spain,SVQ,LEZL,37.417999267578125,-5.8931097984313965
1262,Agen-La Garenne Airport,Agen,France,AGF,LFBA,44.17470169067383,0.5905560255050659
1264,Bordeaux-Mérignac Airport,Bordeaux,France,BOD,LFBD,44.8283004761,-0.715556025505
1265,Bergerac-Roumanière Airport,Bergerac,France,EGC,LFBE,44.82529830932617,0.5186110138893127
1268,Poitiers-Biard Airport,Poitiers,France,PIS,LFBI,46.58769989013672,0.3066659867763519
1270,Limoges Airport,Limoges,France,LIG,LFBL,45.86280059814453,1.1794400215148926
1273,Toulouse-Blagnac Airport,Toulouse,France,TLS,LFBO,43.629101,1.36382
1274,Pau Pyrénées Airport,Pau,France,PUF,LFBP,43.380001068115234,-0.4186109900474548
1276,Tarbes-Lourdes-Pyrénées Airport,Tarbes,France,LDE,LFBT,43.1786994934082,-0.0064389999024569
1277,Angoulême-Brie-Champniers Airport,Angouleme,France,ANG,LFBU,45.72919845581055,0.2214560061693191
1278,Brive Souillac Airport,Brive,France,BVE,LFSL,45.039722,1.485556
1279,Périgueux-Bassillac Airport,Perigueux,France,PGX,LFBX,45.19810104370117,0.815555989742279
1280,Biarritz-Anglet-Bayonne Airport,Biarritz-bayonne,France,BIQ,LFBZ,43.4683333,-1.5311111
1285,Castres-Mazamet Airport,Castres,France,DCM,LFCK,43.55630111694336,2.289180040359497
1289,Rodez-Marcillac Airport,Rodez,France,RDZ,LFCR,44.407901763916016,2.4826700687408447
1309,Dole-Tavaux Airport,Dole,France,DLE,LFGJ,47.042686,5.435063
1313,Le Puy-Loudes Airport,Le Puy,France,LPY,LFHP,45.0806999206543,3.762890100479126
1320,Metz-Nancy-Lorraine Airport,Metz,France,ETZ,LFJL,48.9821014404,6.25131988525
1321,Bastia-Poretta Airport,Bastia,France,BIA,LFKB,42.55270004272461,9.48373031616211
1322,Calvi-Sainte-Catherine Airport,Calvi,France,CLY,LFKC,42.5244444,8.7930556
1323,Figari Sud-Corse Airport,Figari,France,FSC,LFKF,41.5005989074707,9.097780227661133
1324,Ajaccio-Napoléon Bonaparte Airport,Ajaccio,France,AJA,LFKJ,41.92359924316406,8.8029203414917
1330,Clermont-Ferrand Auvergne Airport,Clermont-Ferrand,France,CFE,LFLC,45.7867012024,3.1691699028
1335,Lyon Saint-Exupéry Airport,Lyon,France,LYS,LFLL,45.725556,5.081111
1344,Aurillac Airport,Aurillac,France,AUR,LFLW,44.89139938354492,2.4219400882720947
1350,Saint-Étienne-Bouthéon Airport,St-Etienne,France,EBU,LFMH,45.54059982299805,4.296390056610107
1352,Carcassonne Airport,Carcassonne,France,CCF,LFMK,43.21599960327149,2.3063199520111084
1353,Marseille Provence Airport,Marseille,France,MRS,LFML,43.439271922,5.22142410278
1354,Nice-Côte d'Azur Airport,Nice,France,NCE,LFMN,43.6584014893,7.215869903560001
1356,Perpignan-Rivesaltes (Llabanère) Airport,Perpignan,France,PGF,LFMP,42.74039840698242,2.8706700801849365
1359,Montpellier-Méditerranée Airport,Montpellier,France,MPL,LFMT,43.57619857788086,3.96301007270813
1360,Béziers-Vias Airport,Beziers,France,BZR,LFMU,43.32350158691406,3.353899955749512
1361,Avignon-Caumont Airport,Avignon,France,AVN,LFMV,43.90729904174805,4.901830196380615
1367,Paris Beauvais Tillé Airport,Beauvais,France,BVA,LFOB,49.45439910888672,2.1127800941467285
1371,Le Havre Octeville Airport,Le Havre,France,LEH,LFOH,49.53390121459961,0.0880559980869293
1374,Châlons-Vatry Airport,Chalons,France,XCR,LFOK,48.7733333333,4.206111111
1376,Tours-Val-de-Loire Airport,Tours,France,TUF,LFOT,47.4322013855,0.727605998516
1382,Charles de Gaulle International Airport,Paris,France,CDG,LFPG,49.012798,2.55
1386,Paris-Orly Airport,Paris,France,ORY,LFPO,48.7233333,2.3794444
1399,Lille-Lesquin Airport,Lille,France,LIL,LFQQ,50.563332,3.086886
1403,Brest Bretagne Airport,Brest,France,BES,LFRB,48.447898864746094,-4.418540000915527
1405,Dinard-Pleurtuit-Saint-Malo Airport,Dinard,France,DNR,LFRD,48.58769989013672,-2.0799601078033447
1408,Deauville-Saint-Gatien Airport,Deauville,France,DOL,LFRG,49.3652992249,0.154305994511
1409,Lorient South Brittany (Bretagne Sud) Airport,Lorient,France,LRT,LFRH,47.76060104370117,-3.440000057220459
1412,Caen-Carpiquet Airport,Caen,France,CFR,LFRK,49.173301696777344,-0.449999988079071
1415,Rennes-Saint-Jacques Airport,Rennes,France,RNS,LFRN,48.0694999695,-1.73478996754
1416,Lannion-Côte de Granit Airport,Lannion,France,LAI,LFRO,48.754398,-3.47166
1417,Quimper-Cornouaille Airport,Quimper,France,UIP,LFRQ,47.97499847412109,-4.167789936065674
1418,Nantes Atlantique Airport,Nantes,France,NTE,LFRS,47.153198242200006,-1.61073005199
1423,EuroAirport Basel-Mulhouse-Freiburg Airport,Mulhouse,France,BSL,LFSB,47.59,7.5291667
1425,Dijon-Bourgogne Airport,Dijon,France,DIJ,LFSD,47.268902,5.09
1435,Strasbourg Airport,Strasbourg,France,SXB,LFST,48.53829956054688,7.628230094909668
1438,Toulon-Hyères Airport,Hyeres,France,TLN,LFTH,43.0973014832,6.14602994919
1439,Nîmes-Arles-Camargue Airport,Nimes,France,FNI,LFTW,43.75740051269531,4.4163498878479
1441,St Pierre Airport,St.-pierre,Saint Pierre and Miquelon,FSP,LFVP,46.76290130615234,-56.173099517822266
1446,Dimokritos Airport,Alexandroupolis,Greece,AXD,LGAL,40.855899810791016,25.95630073547364
1448,Nea Anchialos Airport,Nea Anghialos,Greece,VOL,LGBL,39.21960067749024,22.794300079345703
1450,Chios Island National Airport,Chios,Greece,JKH,LGHI,38.34320068359375,26.140600204467773
1451,Ioannina Airport,Ioannina,Greece,IOA,LGIO,39.6963996887207,20.82250022888184
1452,Heraklion International Nikos Kazantzakis Airport,Heraklion,Greece,HER,LGIR,35.3396987915,25.1802997589
1453,Kastoria National Airport,Kastoria,Greece,KSO,LGKA,40.4463005066,21.2821998596
1454,Kithira Airport,Kithira,Greece,KIT,LGKC,36.2742996216,23.0170001984
1455,Kefallinia Airport,Keffallinia,Greece,EFL,LGKF,38.12009811401367,20.5004997253418
1456,Kalamata Airport,Kalamata,Greece,KLX,LGKL,37.06829833984375,22.02549934387207
1458,Kos Airport,Kos,Greece,KGS,LGKO,36.79330062866211,27.091699600219727
1459,Karpathos Airport,Karpathos,Greece,AOK,LGKP,35.4213981628418,27.145999908447266
1460,Ioannis Kapodistrias International Airport,Kerkyra/corfu,Greece,CFU,LGKR,39.601898193359375,19.911699295043945
1461,Kasos Airport,Kasos,Greece,KSJ,LGKS,35.4213981628,26.9099998474
1462,Alexander the Great International Airport,Kavala,Greece,KVA,LGKV,40.91329956054688,24.619199752807617
1463,Filippos Airport,Kozani,Greece,KZI,LGKZ,40.28609848022461,21.84079933166504
1464,Leros Airport,Leros,Greece,LRS,LGLE,37.184898,26.800301
1465,Limnos Airport,Limnos,Greece,LXS,LGLM,39.917098999,25.236299514799995
1468,Mikonos Airport,Mykonos,Greece,JMK,LGMK,37.43510055541992,25.348100662231445
1469,Mytilene International Airport,Mytilini,Greece,MJT,LGMT,39.0567016602,26.5983009338
1470,Aktion National Airport,Preveza,Greece,PVK,LGPZ,38.92549896240234,20.765300750732425
1472,Diagoras Airport,Rhodos,Greece,RHO,LGRP,36.405399322509766,28.086200714111328
1473,Araxos Airport,Patras,Greece,GPA,LGRX,38.1511,21.4256
1474,Chania International Airport,Chania,Greece,CHQ,LGSA,35.531700134277344,24.14970016479492
1475,Skiathos Island National Airport,Skiathos,Greece,JSI,LGSK,39.17710113525391,23.503700256347656
1476,Samos Airport,Samos,Greece,SMI,LGSM,37.68999862670898,26.911699295043945
1479,Santorini Airport,Thira,Greece,JTR,LGSR,36.399200439453125,25.47929954528809
1480,Sitia Airport,Sitia,Greece,JSH,LGST,35.21609878540039,26.101299285888672
1482,Skiros Airport,Skiros,Greece,SKU,LGSY,38.9676017761,24.4871997833
1486,Thessaloniki Macedonia International Airport,Thessaloniki,Greece,SKG,LGTS,40.51969909667969,22.97089958190918
1488,"Zakynthos International Airport ""Dionysios Solomos""",Zakynthos,Greece,ZTH,LGZA,37.7509,20.8843
1489,Budapest Liszt Ferenc International Airport,Budapest,Hungary,BUD,LHBP,47.42976,19.261093
1490,Debrecen International Airport,Debrecen,Hungary,DEB,LHDC,47.48889923095703,21.61529922485352
1501,Bari Karol Wojtyła Airport,Bari,Italy,BRI,LIBD,41.138901,16.760599
1505,Pescara International Airport,Pescara,Italy,PSR,LIBP,42.431702,14.1811
1506,Brindisi – Salento Airport,Brindisi,Italy,BDS,LIBR,40.6576,17.947001
1508,Lamezia Terme Airport,Lamezia,Italy,SUF,LICA,38.905399,16.2423
1509,Catania-Fontanarossa Airport,Catania,Italy,CTA,LICC,37.466801,15.0664
1510,Lampedusa Airport,Lampedusa,Italy,LMP,LICD,35.497898,12.6181
1511,Pantelleria Airport,Pantelleria,Italy,PNL,LICG,36.816502,11.9689
1512,Falcone–Borsellino Airport,Palermo,Italy,PMO,LICJ,38.175999,13.091
1514,Reggio Calabria Airport,Reggio Calabria,Italy,REG,LICR,38.071201,15.6516
1515,Vincenzo Florio Airport Trapani-Birgi,Trapani,Italy,TPS,LICT,37.9114,12.488
1517,Alghero-Fertilia Airport,Alghero,Italy,AHO,LIEA,40.632099,8.29077
1519,Cagliari Elmas Airport,Cagliari,Italy,CAG,LIEE,39.251499,9.05428
1520,Olbia Costa Smeralda Airport,Olbia,Italy,OLB,LIEO,40.898701,9.51763
1524,Malpensa International Airport,Milano,Italy,MXP,LIMC,45.6306,8.72811
1525,Il Caravaggio International Airport,Bergamo,Italy,BGY,LIME,45.673901,9.70417
1526,Turin Airport,Torino,Italy,TRN,LIMF,45.200802,7.64963
1528,Genoa Cristoforo Colombo Airport,Genoa,Italy,GOA,LIMJ,44.4133,8.8375
1529,Milano Linate Airport,Milan,Italy,LIN,LIML,45.445099,9.27674
1531,Parma Airport,Parma,Italy,PMF,LIMP,44.824501,10.2964
1534,Cuneo International Airport,Cuneo,Italy,CUF,LIMZ,44.547001,7.62322
1536,Bolzano Airport,Bolzano,Italy,BZO,LIPB,46.460201,11.3264
1538,Bologna Guglielmo Marconi Airport,Bologna,Italy,BLQ,LIPE,44.5354,11.2887
1539,Treviso-Sant'Angelo Airport,Treviso,Italy,TSF,LIPH,45.648399,12.1944
1545,Trieste–Friuli Venezia Giulia Airport,Ronchi De Legionari,Italy,TRS,LIPQ,45.827499,13.4722
1546,Federico Fellini International Airport,Rimini,Italy,RMI,LIPR,44.020302,12.6117
1550,Verona Villafranca Airport,Villafranca,Italy,VRN,LIPX,45.395699,10.8885
1551,Venice Marco Polo Airport,Venice,Italy,VCE,LIPZ,45.505299,12.3519
1553,Ciampino–G. B. Pastine International Airport,Rome,Italy,CIA,LIRA,41.7994,12.5949
1555,Leonardo da Vinci–Fiumicino Airport,Rome,Italy,FCO,LIRF,41.8002778,12.2388889
1558,Marina Di Campo Airport,Marina Di Campo,Italy,EBA,LIRJ,42.7603,10.2394
1561,Naples International Airport,Naples,Italy,NAP,LIRN,40.886002,14.2908
1562,Pisa International Airport,Pisa,Italy,PSA,LIRP,43.683899,10.3927
1563,Peretola Airport,Florence,Italy,FLR,LIRQ,43.810001,11.2051
1567,Perugia San Francesco d'Assisi – Umbria International Airport,Perugia,Italy,PEG,LIRZ,43.095901,12.5132
1569,Ljubljana Jože Pučnik Airport,Ljubljana,Slovenia,LJU,LJLJ,46.223701,14.4576
1579,Karlovy Vary International Airport,Karlovy Vary,Czech Republic,KLV,LKKV,50.20299911499024,12.914999961853027
1582,Ostrava Leos Janáček Airport,Ostrava,Czech Republic,OSR,LKMT,49.6963005065918,18.111099243164062
1584,Pardubice Airport,Pardubice,Czech Republic,PED,LKPD,50.01340103149414,15.73859977722168
1587,Václav Havel Airport Prague,Prague,Czech Republic,PRG,LKPR,50.1008,14.26
1588,Brno-Tuřany Airport,Brno,Czech Republic,BRQ,LKTB,49.15129852294922,16.694400787353516
1590,Ben Gurion International Airport,Tel-aviv,Israel,TLV,LLBG,32.01139831542969,34.88669967651367
1594,Eilat Airport,Elat,Israel,ETH,LLET,29.56130027770996,34.96009826660156
1596,Haifa International Airport,Haifa,Israel,HFA,LLHA,32.80939865112305,35.04309844970703
1602,Ovda International Airport,Ovda,Israel,VDA,LLOV,29.94029998779297,34.93579864501953
1605,Sde Dov Airport,Tel-aviv,Israel,SDV,LLSD,32.11470031738281,34.78219985961914
1606,Malta International Airport,Malta,Malta,MLA,LMML,35.857498,14.4775
1609,Graz Airport,Graz,Austria,GRZ,LOWG,46.9911003112793,15.439599990844728
1610,Innsbruck Airport,Innsbruck,Austria,INN,LOWI,47.260201,11.344
1611,Linz Hörsching Airport,Linz,Austria,LNZ,LOWL,48.2332,14.1875
1612,Salzburg Airport,Salzburg,Austria,SZG,LOWS,47.7933006287,13.0043001175
1613,Vienna International Airport,Vienna,Austria,VIE,LOWW,48.110298156738,16.569700241089
1617,Santa Maria Airport,Santa Maria (island),Portugal,SMA,LPAZ,36.97140121459961,-25.17060089111328
1625,Flores Airport,Flores,Portugal,FLW,LPFL,39.455299377441406,-31.13139915466309
1626,Faro Airport,Faro,Portugal,FAO,LPFR,37.0144004822,-7.96590995789
1627,Graciosa Airport,Graciosa Island,Portugal,GRW,LPGR,39.09220123291016,-28.029800415039062
1628,Horta Airport,Horta,Portugal,HOR,LPHR,38.519901275634766,-28.71590042114257
1629,Lajes Airport,Lajes (terceira Island),Portugal,TER,LPLA,38.761799,-27.090799
1633,João Paulo II Airport,Ponta Delgada,Portugal,PDL,LPPD,37.7411994934,-25.6979007721
1634,Pico Airport,Pico,Portugal,PIX,LPPI,38.554298,-28.441299
1636,Francisco de Sá Carneiro Airport,Porto,Portugal,OPO,LPPR,41.2481002808,-8.68138980865
1637,Porto Santo Airport,Porto Santo,Portugal,PXO,LPPS,33.0733985901,-16.3500003815
1638,Humberto Delgado Airport (Lisbon Portela Airport),Lisbon,Portugal,LIS,LPPT,38.7813,-9.13592
1639,São Jorge Airport,Sao Jorge Island,Portugal,SJZ,LPSJ,38.66550064086914,-28.175800323486328
1645,Mostar International Airport,Mostar,Bosnia and Herzegovina,OMO,LQMO,43.282901763916016,17.84589958190918
1646,Sarajevo International Airport,Sarajevo,Bosnia and Herzegovina,SJJ,LQSA,43.82460021972656,18.331499099731445
1647,Arad International Airport,Arad,Romania,ARW,LRAR,46.17660140991211,21.261999130249023
1649,Tautii Magheraus Airport,Baia Mare,Romania,BAY,LRBM,47.65840148925781,23.46999931335449
1651,Mihail Kogălniceanu International Airport,Constanta,Romania,CND,LRCK,44.36220169067383,28.488300323486328
1652,Cluj-Napoca International Airport,Cluj-napoca,Romania,CLJ,LRCL,46.78519821166992,23.686199188232425
1654,Craiova Airport,Craiova,Romania,CRA,LRCV,44.31809997558594,23.88859939575196
1655,Iaşi Airport,Iasi,Romania,IAS,LRIA,47.17850112915039,27.6205997467041
1656,Oradea International Airport,Oradea,Romania,OMR,LROD,47.025299072265625,21.90250015258789
1657,Henri Coandă International Airport,Bucharest,Romania,OTP,LROP,44.5711111,26.085
1658,Sibiu International Airport,Sibiu,Romania,SBZ,LRSB,45.78559875488281,24.09129905700684
1659,Satu Mare Airport,Satu Mare,Romania,SUJ,LRSM,47.70330047607422,22.88570022583008
1662,Transilvania Târgu Mureş International Airport,Tirgu Mures,Romania,TGM,LRTM,46.46770095825195,24.412500381469727
1663,Timişoara Traian Vuia Airport,Timisoara,Romania,TSR,LRTR,45.80989837646485,21.337900161743164
1665,Geneva Cointrin International Airport,Geneva,Switzerland,GVA,LSGG,46.23809814453125,6.108950138092041
1675,Lugano Airport,Lugano,Switzerland,LUG,LSZA,46.00429916379999,8.9105796814
1676,Bern Belp Airport,Bern,Switzerland,BRN,LSZB,46.914100647,7.497149944309999
1678,Zürich Airport,Zurich,Switzerland,ZRH,LSZH,47.464699,8.54917
1679,St Gallen Altenrhein Airport,Altenrhein,Switzerland,ACH,LSZR,47.4850006104,9.560770034789998
1682,Esenboğa International Airport,Ankara,Turkey,ESB,LTAC,40.1281013489,32.995098114
1685,Adana Airport,Adana,Turkey,ADA,LTAF,36.9822006226,35.2803993225
1688,Antalya International Airport,Antalya,Turkey,AYT,LTAI,36.898701,30.800501
1689,Gaziantep International Airport,Gaziantep,Turkey,GZT,LTAJ,36.9472007751,37.4786987305
1691,Konya Airport,Konya,Turkey,KYA,LTAN,37.979,32.561901
1692,Malatya Tulga Airport,Malatya,Turkey,\N,LTAO,38.353699,38.253899
1693,Amasya Merzifon Airport,Merzifon,Turkey,MZH,LTAP,40.829399,35.521999
1694,Sivas Nuri Demirağ Airport,Sivas,Turkey,VAS,LTAR,39.813801,36.9035
1696,Kayseri Erkilet Airport,Kayseri,Turkey,ASR,LTAU,38.770401001,35.4953994751
1699,Çardak Airport,Denizli,Turkey,DNZ,LTAY,37.7855987549,29.7012996674
1701,Atatürk International Airport,Istanbul,Turkey,ISL,LTBA,40.976898,28.8146
1706,Adnan Menderes International Airport,Izmir,Turkey,ADB,LTBJ,38.2924003601,27.156999588
1715,Dalaman International Airport,Dalaman,Turkey,DLM,LTBS,36.7131004333,28.7924995422
1721,Elazığ Airport,Elazig,Turkey,EZS,LTCA,38.6068992615,39.2914009094
1722,Diyarbakir Airport,Diyabakir,Turkey,DIY,LTCC,37.893901825,40.2010002136
1723,Erzincan Airport,Erzincan,Turkey,ERC,LTCD,39.7102012634,39.5270004272
1724,Erzurum International Airport,Erzurum,Turkey,ERZ,LTCE,39.9565010071,41.17020034789999
1726,Trabzon International Airport,Trabzon,Turkey,TZX,LTCG,40.99509811401367,39.78969955444336
1728,Van Ferit Melen Airport,Van,Turkey,VAN,LTCI,38.46820068359375,43.332298278808594
1729,Batman Airport,Batman,Turkey,BAL,LTCJ,37.9290008545,41.1166000366
1735,Chişinău International Airport,Chisinau,Moldova,KIV,LUKK,46.92770004272461,28.93099975585937
1737,Skopje Alexander the Great Airport,Skopje,Macedonia,SKP,LWSK,41.961601,21.621401
1738,Gibraltar Airport,Gibraltar,Gibraltar,GIB,LXGB,36.1511993408,-5.3496599197400005
1739,Belgrade Nikola Tesla Airport,Belgrade,Serbia,BEG,LYBE,44.8184013367,20.3090991974
1741,Podgorica Airport,Podgorica,Montenegro,TGD,LYPG,42.359402,19.2519
1742,Priština International Airport,Pristina,Serbia,PRN,BKPR,42.5728,21.035801
1743,Tivat Airport,Tivat,Montenegro,TIV,LYTV,42.40470123291016,18.72330093383789
1745,M. R. Štefánik Airport,Bratislava,Slovakia,BTS,LZIB,48.17020034790039,17.21269989013672
1746,Košice Airport,Kosice,Slovakia,KSC,LZKZ,48.66310119628906,21.241100311279297
1754,Providenciales Airport,Providenciales,Turks and Caicos Islands,PLS,MBPV,21.77359962463379,-72.26589965820312
1755,South Caicos Airport,South Caicos,Turks and Caicos Islands,XSC,MBSC,21.5156993866,-71.528503418
1759,Casa De Campo International Airport,La Romana,Dominican Republic,LRM,MDLR,18.45070075988769,-68.91179656982422
1760,Punta Cana International Airport,Punta Cana,Dominican Republic,PUJ,MDPC,18.5673999786,-68.36340332030001
1761,Gregorio Luperon International Airport,Puerto Plata,Dominican Republic,POP,MDPP,19.75790023803711,-70.56999969482422
1762,Las Américas International Airport,Santo Domingo,Dominican Republic,SDQ,MDSD,18.42970085144,-69.668899536133
1764,Cibao International Airport,Santiago,Dominican Republic,STI,MDST,19.406099319458008,-70.60469818115234
1767,La Aurora Airport,Guatemala City,Guatemala,GUA,MGGT,14.5833,-90.527496
1771,Goloson International Airport,La Ceiba,Honduras,LCE,MHLC,15.7425,-86.852997
1772,Ramón Villeda Morales International Airport,San Pedro Sula,Honduras,SAP,MHLM,15.4526,-87.923599
1773,La Laguna Airport,Guanaja,Honduras,GJA,MHNJ,16.4454,-85.906601
1774,Juan Manuel Galvez International Airport,Roatan,Honduras,RTB,MHRO,16.316799,-86.523003
1776,Toncontín International Airport,Tegucigalpa,Honduras,TGU,MHTG,14.06089973449707,-87.21720123291016
1779,Norman Manley International Airport,Kingston,Jamaica,KIN,MKJP,17.935699462890625,-76.7874984741211
1780,Sangster International Airport,Montego Bay,Jamaica,MBJ,MKJS,18.503700256347656,-77.91339874267578
1783,General Juan N Alvarez International Airport,Acapulco,Mexico,ACA,MMAA,16.757099151611328,-99.75399780273438
1785,Jesús Terán Paredo International Airport,Aguascalientes,Mexico,AGU,MMAS,21.705601,-102.318001
1786,Bahías de Huatulco International Airport,Huatulco,Mexico,HUX,MMBT,15.7753,-96.262604
1789,Ciudad del Carmen International Airport,Ciudad Del Carmen,Mexico,CME,MMCE,18.65369987487793,-91.79900360107422
1792,Bachigualato Federal International Airport,Culiacan,Mexico,CUL,MMCL,24.7644996643,-107.474998474
1793,Chetumal International Airport,Chetumal,Mexico,CTM,MMCM,18.50469970703125,-88.32679748535156
1794,Ciudad Obregón International Airport,Ciudad Obregon,Mexico,CEN,MMCN,27.39259910583496,-109.83300018310548
1795,Ingeniero Alberto Acuña Ongay International Airport,Campeche,Mexico,CPE,MMCP,19.816799163800003,-90.5002975464
1796,Abraham González International Airport,Ciudad Juarez,Mexico,CJS,MMCS,31.63610076904297,-106.4290008544922
1797,General Roberto Fierro Villalobos International Airport,Chihuahua,Mexico,CUU,MMCU,28.702899932900003,-105.964996338
1798,General Pedro Jose Mendez International Airport,Ciudad Victoria,Mexico,CVM,MMCV,23.7033004761,-98.9564971924
1800,Cozumel International Airport,Cozumel,Mexico,CZM,MMCZ,20.52239990234375,-86.92559814453125
1801,General Guadalupe Victoria International Airport,Durango,Mexico,DGO,MMDO,24.1242008209,-104.527999878
1802,Amado Nervo National Airport,Tepic,Mexico,TPQ,MMEP,21.4195,-104.843002
1804,Don Miguel Hidalgo Y Costilla International Airport,Guadalajara,Mexico,GDL,MMGL,20.52179908752441,-103.31099700927734
1807,General Ignacio P. Garcia International Airport,Hermosillo,Mexico,HMO,MMHO,29.095899581900003,-111.047996521
1808,Licenciado Miguel de la Madrid Airport,Colima,Mexico,CLQ,MMIA,19.277,-103.577002
1810,Plan De Guadalupe International Airport,Saltillo,Mexico,SLW,MMIO,25.54949951171875,-100.9290008544922
1813,Lázaro Cárdenas Airport,Lazard Cardenas,Mexico,LZC,MMLC,18.0016994476,-102.221000671
1814,Valle del Fuerte International Airport,Los Mochis,Mexico,LMM,MMLM,25.6851997375,-109.081001282
1815,Del Bajío International Airport,Del Bajio,Mexico,BJX,MMLO,20.9935,-101.481003
1816,Manuel Márquez de León International Airport,La Paz,Mexico,LAP,MMLP,24.0727005005,-110.361999512
1817,Loreto International Airport,Loreto,Mexico,LTO,MMLT,25.989200592041016,-111.3479995727539
1818,General Servando Canales International Airport,Matamoros,Mexico,MAM,MMMA,25.7698993683,-97.5252990723
1819,Licenciado Manuel Crescencio Rejon Int Airport,Merida,Mexico,MID,MMMD,20.9370002747,-89.657699585
1820,General Rodolfo Sánchez Taboada International Airport,Mexicali,Mexico,MXL,MMML,32.6306,-115.241997
1821,General Francisco J. Mujica International Airport,Morelia,Mexico,MLM,MMMM,19.849899292,-101.025001526
1822,Minatitlán/Coatzacoalcos National Airport,Minatitlan,Mexico,MTT,MMMT,18.1033992767,-94.5807037354
1824,Licenciado Benito Juarez International Airport,Mexico City,Mexico,MEX,MMMX,19.4363,-99.072098
1825,General Mariano Escobedo International Airport,Monterrey,Mexico,MTY,MMMY,25.7784996033,-100.107002258
1826,General Rafael Buelna International Airport,Mazatlan,Mexico,MZT,MMMZ,23.1613998413,-106.26599884
1828,Quetzalcóatl International Airport,Nuevo Laredo,Mexico,NLD,MMNL,27.4438991547,-99.5705032349
1829,Xoxocotlán International Airport,Oaxaca,Mexico,OAX,MMOX,16.9999008179,-96.726600647
1830,El Tajín National Airport,Poza Rico,Mexico,PAZ,MMPA,20.6026992798,-97.4608001709
1831,Hermanos Serdán International Airport,Puebla,Mexico,PBC,MMPB,19.1581001282,-98.3713989258
1834,Piedras Negras International Airport,Piedras Negras,Mexico,PDS,MMPG,28.627399,-100.535004
1835,Licenciado y General Ignacio Lopez Rayon Airport,Uruapan,Mexico,UPN,MMPN,19.396699905395508,-102.03900146484376
1836,Licenciado Gustavo Díaz Ordaz International Airport,Puerto Vallarta,Mexico,PVR,MMPR,20.680099487304688,-105.25399780273438
1837,Puerto Escondido International Airport,Puerto Escondido,Mexico,PXM,MMPS,15.8769,-97.089103
1838,Querétaro Intercontinental Airport,Queretaro,Mexico,QRO,MMQT,20.6173,-100.185997
1839,General Lucio Blanco International Airport,Reynosa,Mexico,REX,MMRX,26.0089,-98.2285
1840,Los Cabos International Airport,San Jose Del Cabo,Mexico,SJD,MMSD,23.15180015563965,-109.72100067138672
1842,Ponciano Arriaga International Airport,San Luis Potosi,Mexico,SLP,MMSP,22.254299163800003,-100.930999756
1845,Francisco Sarabia International Airport,Torreon,Mexico,TRC,MMTC,25.5683002472,-103.411003113
1846,Angel Albino Corzo International Airport,Tuxtla Gutierrez,Mexico,TGZ,MMTG,16.5636005402,-93.0224990845
1847,General Abelardo L. Rodríguez International Airport,Tijuana,Mexico,TIJ,MMTJ,32.541099548339844,-116.97000122070312
1848,General Francisco Javier Mina International Airport,Tampico,Mexico,TAM,MMTM,22.2964000702,-97.8658981323
1850,Licenciado Adolfo Lopez Mateos International Airport,Toluca,Mexico,TLC,MMTO,19.3370990753,-99.56600189210002
1851,Tapachula International Airport,Tapachula,Mexico,TAP,MMTP,14.7943000793,-92.3700027466
1852,Cancún International Airport,Cancun,Mexico,CUN,MMUN,21.036500930800003,-86.8770980835
1853,Carlos Rovirosa Pérez International Airport,Villahermosa,Mexico,VSA,MMVA,17.996999740600586,-92.81739807128906
1854,General Heriberto Jara International Airport,Vera Cruz,Mexico,VER,MMVR,19.1459007263,-96.1873016357
1855,General Leobardo C. Ruiz International Airport,Zacatecas,Mexico,ZCL,MMZC,22.8971004486,-102.68699646
1856,Ixtapa Zihuatanejo International Airport,Zihuatanejo,Mexico,ZIH,MMZH,17.601600647,-101.460998535
1858,Playa De Oro International Airport,Manzanillo,Mexico,ZLO,MMZO,19.1448001862,-104.558998108
1863,Augusto C. Sandino (Managua) International Airport,Managua,Nicaragua,MGA,MNMG,12.14150047302246,-86.16819763183594
1865,Bocas Del Toro International Airport,Bocas Del Toro,Panama,BOC,MPBO,9.340849876403809,-82.25080108642578
1866,Cap Manuel Niño International Airport,Changuinola,Panama,CHX,MPCH,9.458962,-82.515062
1867,Enrique Malek International Airport,David,Panama,DAV,MPDA,8.390999794006348,-82.43499755859375
1869,Marcos A. Gelabert International Airport,Panama,Panama,PAC,MPMG,8.973340034484863,-79.55560302734375
1871,Tocumen International Airport,Panama City,Panama,PTY,MPTO,9.0713596344,-79.3834991455
1879,Golfito Airport,Golfito,Costa Rica,GLF,MRGF,8.654009819030762,-83.18219757080078
1881,Daniel Oduber Quiros International Airport,Liberia,Costa Rica,LIR,MRLB,10.5933,-85.544403
1884,Nosara Airport,Nosara Beach,Costa Rica,NOB,MRNS,9.97649002075,-85.65299987790002
1885,Juan Santamaria International Airport,San Jose,Costa Rica,SJO,MROC,9.993860244750977,-84.20880126953125
1887,Palmar Sur Airport,Palmar Sur,Costa Rica,PMZ,MRPM,8.951029777526855,-83.46859741210938
1889,Quepos Managua Airport,Quepos,Costa Rica,XQP,MRQP,9.443160057067873,-84.12979888916016
1892,Monseñor Óscar Arnulfo Romero International Airport,San Salvador,El Salvador,SAL,MSLP,13.4409,-89.055702
1895,Cap Haitien International Airport,Cap Haitien,Haiti,CAP,MTCH,19.733,-72.194702
1897,Toussaint Louverture International Airport,Port-au-prince,Haiti,PAP,MTPP,18.57999992370605,-72.2925033569336
1901,Jardines Del Rey Airport,Cunagua,Cuba,CCC,MUCC,22.4610004425,-78.32839965820001
1903,Vilo Acuña International Airport,Cayo Largo del Sur,Cuba,CYO,MUCL,21.6165008545,-81.5459976196
1904,Ignacio Agramonte International Airport,Camaguey,Cuba,CMW,MUCM,21.420299530029297,-77.84750366210938
1905,Antonio Maceo International Airport,Santiago De Cuba,Cuba,SCU,MUCU,19.96980094909668,-75.83540344238281
1908,Mariana Grajales Airport,Guantanamo,Cuba,GAO,MUGT,20.08530044555664,-75.1583023071289
1909,José Martí International Airport,Havana,Cuba,HAV,MUHA,22.989200592041016,-82.40910339355469
1910,Frank Pais International Airport,Holguin,Cuba,HOG,MUHG,20.785600662231445,-76.31510162353516
1918,Abel Santamaria Airport,Santa Clara,Cuba,SNU,MUSC,22.49220085144043,-79.943603515625
1923,Juan Gualberto Gomez International Airport,Varadero,Cuba,VRA,MUVR,23.034400939941406,-81.435302734375
1925,Gerrard Smith International Airport,Cayman Brac,Cayman Islands,CYB,MWCB,19.687000274658203,-79.88279724121094
1926,Owen Roberts International Airport,Georgetown,Cayman Islands,GCM,MWCR,19.2928009033,-81.3576965332
1930,Leonard M Thompson International Airport,Marsh Harbor,Bahamas,MHH,MYAM,26.5114,-77.083503
1932,Spring Point Airport,Spring Point,Bahamas,AXP,MYAP,22.441799163800003,-73.97090148930002
1934,Treasure Cay Airport,Treasure Cay,Bahamas,TCB,MYAT,26.745300293,-77.3912963867
1937,South Bimini Airport,Alice Town,Bahamas,BIM,MYBS,25.6998996735,-79.2647018433
1941,Exuma International Airport,Great Exuma,Bahamas,GGT,MYEF,23.5625991821,-75.8779983521
1943,North Eleuthera Airport,North Eleuthera,Bahamas,ELH,MYEH,25.474899292,-76.6835021973
1944,Governor's Harbour Airport,Governor's Harbor,Bahamas,GHB,MYEM,25.2847003937,-76.3310012817
1946,Rock Sound Airport,Rock Sound,Bahamas,RSD,MYER,24.8950787333,-76.1768817902
1948,Grand Bahama International Airport,Freeport,Bahamas,FPO,MYGF,26.5587005615,-78.695602417
1949,Inagua Airport,Matthew Town,Bahamas,IGA,MYIG,20.975000381469727,-73.66690063476562
1950,Deadman's Cay Airport,Dead Man's Cay,Bahamas,LGI,MYLD,23.1790008545,-75.09359741210001
1951,Stella Maris Airport,Stella Maris,Bahamas,SML,MYLS,23.582317,-75.268621
1952,Mayaguana Airport,Mayaguana,Bahamas,MYG,MYMM,22.379499,-73.013494
1953,Lynden Pindling International Airport,Nassau,Bahamas,NAS,MYNN,25.0389995575,-77.46620178219999
1956,San Salvador Airport,Cockburn Town,Bahamas,ZSA,MYSM,24.06329917907715,-74.52400207519531
1957,Philip S. W. Goldson International Airport,Belize City,Belize,BZE,MZBZ,17.539100646972656,-88.30819702148438
1958,Aitutaki Airport,Aitutaki,Cook Islands,AIT,NCAI,-18.830900192260746,-159.76400756835938
1959,Rarotonga International Airport,Avarua,Cook Islands,RAR,NCRG,-21.2026996613,-159.805999756
1960,Nadi International Airport,Nandi,Fiji,NAN,NFFN,-17.755399703979492,177.4429931640625
1961,Nausori International Airport,Nausori,Fiji,SUV,NFNA,-18.04330062866211,178.5590057373047
1963,Fua'amotu International Airport,Tongatapu,Tonga,TBU,NFTF,-21.241199493408203,-175.14999389648438
1965,Bonriki International Airport,Tarawa,Kiribati,TRW,NGTA,1.3816399574279783,173.14700317382812
1968,Hihifo Airport,Wallis,Wallis and Futuna,WLS,NLWW,-13.2383003235,-176.199005127
1969,Faleolo International Airport,Faleolo,Samoa,APW,NSFA,-13.829999923706056,-172.00799560546875
1970,Pago Pago International Airport,Pago Pago,American Samoa,PPG,NSTU,-14.3310003281,-170.710006714
1971,Rurutu Airport,Rurutu,French Polynesia,RUR,NTAR,-22.43409919738769,-151.36099243164062
1972,Tubuai Airport,Tubuai,French Polynesia,TUB,NTAT,-23.36540031433105,-149.5240020751953
1975,Tikehau Airport,Tikehau,French Polynesia,TIH,NTGC,-15.119600296020508,-148.2310028076172
1977,Fakarava Airport,Fakarava,French Polynesia,FAV,NTGF,-16.054100036621094,-145.65699768066406
1978,Manihi Airport,Manihi,French Polynesia,XMH,NTGI,-14.436800003051758,-146.07000732421875
1979,Totegegie Airport,Totegegie,French Polynesia,GMR,NTGJ,-23.07990074157715,-134.88999938964844
1980,Kaukura Airport,Kaukura Atoll,French Polynesia,KKR,NTGK,-15.663299560546877,-146.88499450683594
1981,Makemo Airport,Makemo,French Polynesia,MKP,NTGM,-16.583900451660156,-143.6580047607422
1983,Takapoto Airport,Takapoto,French Polynesia,TKP,NTGT,-14.709500312805176,-145.24600219726562
1984,Arutua Airport,Arutua,French Polynesia,AXR,NTGU,-15.248299598693848,-146.61700439453125
1985,Mataiva Airport,Mataiva,French Polynesia,MVT,NTGV,-14.8681001663208,-148.7169952392578
1986,Takaroa Airport,Takaroa,French Polynesia,TKX,NTKR,-14.45580005645752,-145.02499389648438
1987,Nuku Hiva Airport,Nuku Hiva,French Polynesia,NHV,NTMD,-8.795599937438965,-140.22900390625
1989,Bora Bora Airport,Bora Bora,French Polynesia,BOB,NTTB,-16.444400787353516,-151.75100708007812
1990,Rangiroa Airport,Rangiroa,French Polynesia,RGI,NTTG,-14.954299926757812,-147.66099548339844
1991,Huahine-Fare Airport,Huahine Island,French Polynesia,HUH,NTTH,-16.68720054626465,-151.02200317382812
1992,Moorea Airport,Moorea,French Polynesia,MOZ,NTTM,-17.49,-149.761993
1993,Hao Airport,Hao Island,French Polynesia,HOI,NTTO,-18.074800491333008,-140.9459991455078
1994,Maupiti Airport,Maupiti,French Polynesia,MAU,NTTP,-16.42650032043457,-152.24400329589844
1995,Raiatea Airport,Raiatea Island,French Polynesia,RFP,NTTR,-16.7229,-151.466003
1997,Bauerfield International Airport,Port-vila,Vanuatu,VLI,NVVV,-17.699300765991,168.32000732422
1998,Koné Airport,Kone,New Caledonia,KNQ,NWWD,-21.05430030822754,164.83700561523438
1999,Koumac Airport,Koumac,New Caledonia,KOC,NWWK,-20.546300888061523,164.25599670410156
2000,Lifou Airport,Lifou,New Caledonia,LIF,NWWL,-20.774799346923828,167.24000549316406
2001,Nouméa Magenta Airport,Noumea,New Caledonia,GEA,NWWM,-22.25830078125,166.47300720214844
2002,Maré Airport,Mare,New Caledonia,MEE,NWWR,-21.4817008972168,168.03799438476562
2003,Touho Airport,Touho,New Caledonia,TOU,NWWU,-20.790000915527344,165.25900268554688
2004,Ouvéa Airport,Ouvea,New Caledonia,UVE,NWWV,-20.640600204467773,166.572998046875
2005,La Tontouta International Airport,Noumea,New Caledonia,NOU,NWWW,-22.01460075378418,166.21299743652344
2006,Auckland International Airport,Auckland,New Zealand,AKL,NZAA,-37.0080986023,174.792007446
2007,Taupo Airport,Taupo,New Zealand,TUO,NZAP,-38.73970031738281,176.08399963378906
2009,Christchurch International Airport,Christchurch,New Zealand,CHC,NZCH,-43.48939895629883,172.53199768066406
2011,Dunedin Airport,Dunedin,New Zealand,DUD,NZDN,-45.9281005859375,170.197998046875
2012,Gisborne Airport,Gisborne,New Zealand,GIS,NZGS,-38.66329956054688,177.97799682617188
2015,Hamilton International Airport,Hamilton,New Zealand,HLZ,NZHN,-37.8666992188,175.332000732
2017,Kerikeri Airport,Kerikeri,New Zealand,KKE,NZKK,-35.26279830932617,173.91200256347656
2018,Kaitaia Airport,Kaitaia,New Zealand,KAT,NZKT,-35.06999969482422,173.28500366210938
2023,New Plymouth Airport,New Plymouth,New Zealand,NPL,NZNP,-39.00859832763672,174.1790008544922
2024,Nelson Airport,Nelson,New Zealand,NSN,NZNS,-41.298301696777344,173.2209930419922
2025,Invercargill Airport,Invercargill,New Zealand,IVC,NZNV,-46.41239929199219,168.31300354003906
2028,Palmerston North Airport,Palmerston North,New Zealand,PMR,NZPM,-40.32059860229492,175.61700439453125
2029,Paraparaumu Airport,Paraparaumu,New Zealand,PPQ,NZPP,-40.90470123291016,174.98899841308594
2030,Queenstown International Airport,Queenstown International,New Zealand,ZQN,NZQN,-45.0210990906,168.738998413
2031,Rotorua Regional Airport,Rotorua,New Zealand,ROT,NZRO,-38.10919952392578,176.31700134277344
2034,Tauranga Airport,Tauranga,New Zealand,TRG,NZTG,-37.67190170288086,176.1959991455078
2035,Timaru Airport,Timaru,New Zealand,TIU,NZTU,-44.30279922485352,171.22500610351562
2037,Woodbourne Airport,Woodbourne,New Zealand,BHE,NZWB,-41.5182991027832,173.8699951171875
2041,Whakatane Airport,Whakatane,New Zealand,WHK,NZWK,-37.92060089111328,176.91400146484375
2042,Wellington International Airport,Wellington,New Zealand,WLG,NZWN,-41.3272018433,174.804992676
2045,Whangarei Airport,Whangarei,New Zealand,WRE,NZWR,-35.7682991027832,174.36500549316406
2046,Westport Airport,Westport,New Zealand,WSZ,NZWS,-41.73809814453125,171.58099365234375
2047,Wanganui Airport,Wanganui,New Zealand,WAG,NZWU,-39.96220016479492,175.02499389648438
2048,Herat Airport,Herat,Afghanistan,HEA,OAHR,34.209999084472656,62.22829818725586
2050,Hamid Karzai International Airport,Kabul,Afghanistan,KBL,OAKB,34.565899,69.212303
2051,Kandahar Airport,Kandahar,Afghanistan,KDH,OAKN,31.505800247192383,65.8478012084961
2053,Mazar I Sharif Airport,Mazar-i-sharif,Afghanistan,MZR,OAMS,36.70690155029297,67.20970153808594
2057,Bahrain International Airport,Bahrain,Bahrain,BAH,OBBI,26.27079963684082,50.63359832763672
2059,Abha Regional Airport,Abha,Saudi Arabia,AHB,OEAB,18.2404003143,42.65660095210001
2060,Al Ahsa Airport,Al-ahsa,Saudi Arabia,HOF,OEAH,25.28529930114746,49.485198974609375
2061,Al Baha Airport,El-baha,Saudi Arabia,ABT,OEBA,20.2961006165,41.6343002319
2062,Bisha Airport,Bisha,Saudi Arabia,BHH,OEBH,19.984399795532227,42.62089920043945
2064,King Fahd International Airport,Dammam,Saudi Arabia,DMM,OEDF,26.471200942993164,49.79790115356445
2066,Jizan Regional Airport,Gizan,Saudi Arabia,GIZ,OEGN,16.901100158691406,42.58580017089844
2067,Gassim Airport,Gassim,Saudi Arabia,ELQ,OEGS,26.30279922485352,43.77439880371094
2068,Gurayat Domestic Airport,Guriat,Saudi Arabia,URY,OEGT,31.412413,37.278898
2069,Ha'il Airport,Hail,Saudi Arabia,HAS,OEHL,27.437901,41.686298
2072,King Abdulaziz International Airport,Jeddah,Saudi Arabia,JED,OEJN,21.6796,39.156502
2074,Prince Mohammad Bin Abdulaziz Airport,Madinah,Saudi Arabia,MED,OEMA,24.5534,39.705101
2075,Nejran Airport,Nejran,Saudi Arabia,EAM,OENG,17.611400604248047,44.4192008972168
2076,Al Qaisumah/Hafr Al Batin Airport,Hafr Al-batin,Saudi Arabia,AQI,OEPA,28.335199,46.125099
2081,Rafha Domestic Airport,Rafha,Saudi Arabia,RAH,OERF,29.626399993896484,43.4906005859375
2082,King Khaled International Airport,Riyadh,Saudi Arabia,RUH,OERK,24.95759963989257,46.69879913330078
2084,Arar Domestic Airport,Arar,Saudi Arabia,RAE,OERR,30.90660095214844,41.13819885253906
2086,Sharurah Airport,Sharurah,Saudi Arabia,SHW,OESH,17.466899871826172,47.12139892578125
2089,Tabuk Airport,Tabuk,Saudi Arabia,TUU,OETB,28.3654,36.6189
2090,Ta’if Regional Airport,Taif,Saudi Arabia,TIF,OETF,21.483001,40.543442
2093,Turaif Domestic Airport,Turaif,Saudi Arabia,TUI,OETR,31.692188,38.731544
2095,Al Wajh Domestic Airport,Wejh,Saudi Arabia,EJH,OEWJ,26.19860076904297,36.47639846801758
2096,Prince Abdulmohsin Bin Abdulaziz Airport,Yenbo,Saudi Arabia,YNB,OEYN,24.144199,38.0634
2097,Abadan Airport,Abadan,Iran,ABD,OIAA,30.371099472,48.2282981873
2103,Mahshahr Airport,Bandar Mahshahr,Iran,MRX,OIAM,30.55620002746582,49.15190124511719
2104,Ahwaz Airport,Ahwaz,Iran,AWZ,OIAW,31.3374004364,48.7620010376
2106,Bushehr Airport,Bushehr,Iran,BUZ,OIBB,28.9447994232,50.8345985413
2109,Kish International Airport,Kish Island,Iran,KIH,OIBK,26.5261993408,53.9802017212
2110,Bandar Lengeh Airport,Bandar Lengeh,Iran,BDH,OIBL,26.531999588,54.824798584
2114,Shahid Ashrafi Esfahani Airport,Bakhtaran,Iran,KSH,OICC,34.3459014893,47.1581001282
2117,Sanandaj Airport,Sanandaj,Iran,SDG,OICS,35.24589920043945,47.00920104980469
2121,Esfahan Shahid Beheshti International Airport,Esfahan,Iran,IFN,OIFM,32.75080108642578,51.86130142211914
2123,Sardar-e-Jangal Airport,Rasht,Iran,RAS,OIGG,37.323333,49.617778
2131,Mehrabad International Airport,Teheran,Iran,THR,OIII,35.68920135498047,51.31340026855469
2134,Bandar Abbas International Airport,Bandar Abbas,Iran,BND,OIKB,27.218299865722656,56.37779998779297
2136,Kerman Airport,Kerman,Iran,KER,OIKK,30.2744007111,56.9510993958
2142,Birjand Airport,Birjand,Iran,XBJ,OIMB,32.898101806640625,59.2661018371582
2151,Ramsar Airport,Ramsar,Iran,RZR,OINR,36.9099006652832,50.67959976196289
2157,Shiraz Shahid Dastghaib International Airport,Shiraz,Iran,SYZ,OISS,29.53919982910156,52.58980178833008
2162,Tabriz International Airport,Tabriz,Iran,TBZ,OITT,38.1338996887207,46.23500061035156
2164,Shahid Sadooghi Airport,Yazd,Iran,AZD,OIYY,31.9048995972,54.2765007019
2165,Zabol Airport,Zabol,Iran,ACZ,OIZB,31.09830093383789,61.54389953613281
2166,Konarak Airport,Chah Bahar,Iran,ZBR,OIZC,25.4433002472,60.3820991516
2167,Zahedan International Airport,Zahedan,Iran,ZAH,OIZH,29.47570037841797,60.90620040893555
2170,Queen Alia International Airport,Amman,Jordan,AMM,OJAI,31.7226009369,35.9931983948
2172,Aqaba King Hussein International Airport,Aqaba,Jordan,AQJ,OJAQ,29.61160087585449,35.01810073852539
2176,Kuwait International Airport,Kuwait,Kuwait,KWI,OKBK,29.226600646972656,47.96889877319336
2177,Beirut Rafic Hariri International Airport,Beirut,Lebanon,BEY,OLBA,33.820899963378906,35.488399505615234
2179,Abu Dhabi International Airport,Abu Dhabi,United Arab Emirates,AUH,OMAA,24.433000564575195,54.651100158691406
2180,Bateen Airport,Abu Dhabi,United Arab Emirates,AZI,OMAD,24.428300857543945,54.458099365234375
2188,Dubai International Airport,Dubai,United Arab Emirates,DXB,OMDB,25.2527999878,55.3643989563
2189,Fujairah International Airport,Fujeirah,United Arab Emirates,FJR,OMFJ,25.112199783325195,56.32400131225586
2191,Sharjah International Airport,Sharjah,United Arab Emirates,SHJ,OMSJ,25.32859992980957,55.5172004699707
2194,Muscat International Airport,Muscat,Oman,MCT,OOMS,23.593299865722656,58.284400939941406
2195,Salalah Airport,Salalah,Oman,SLL,OOSA,17.038700103759766,54.09130096435547
2202,Faisalabad International Airport,Faisalabad,Pakistan,LYP,OPFA,31.364999771118164,72.99479675292969
2203,Gwadar International Airport,Gwadar,Pakistan,GWD,OPGD,25.233299255371094,62.329498291015625
2204,Gilgit Airport,Gilgit,Pakistan,GIL,OPGT,35.918800354003906,74.33360290527344
2206,Jinnah International Airport,Karachi,Pakistan,KHI,OPKC,24.9065,67.160797
2207,Alama Iqbal International Airport,Lahore,Pakistan,LHE,OPLA,31.5216007232666,74.40360260009766
2212,Moenjodaro Airport,Moenjodaro,Pakistan,MJD,OPMJ,27.3351993560791,68.14309692382812
2214,Multan International Airport,Multan,Pakistan,MUX,OPMT,30.20319938659668,71.41909790039062
2217,Panjgur Airport,Panjgur,Pakistan,PJG,OPPG,26.95450019836425,64.13249969482422
2219,Peshawar International Airport,Peshawar,Pakistan,PEW,OPPS,33.993900299072266,71.51460266113281
2221,Quetta International Airport,Quetta,Pakistan,UET,OPQT,30.251399993896484,66.93779754638672
2222,Shaikh Zaid Airport,Rahim Yar Khan,Pakistan,RYK,OPRK,28.383899688720703,70.27960205078125
2223,Benazir Bhutto International Airport,Islamabad,Pakistan,\N,OPRN,33.616699,73.099197
2227,Sukkur Airport,Sukkur,Pakistan,SKZ,OPSK,27.722000122070312,68.79170227050781
2233,Zhob Airport,Zhob,Pakistan,PZH,OPZB,31.35840034484864,69.4636001586914
2234,Basrah International Airport,Basrah,Iraq,BSR,ORMM,30.54910087585449,47.66210174560547
2243,Rota International Airport,Rota,Northern Mariana Islands,ROP,PGRO,14.17430019378662,145.2429962158203
2244,Saipan International Airport,Saipan,Northern Mariana Islands,SPN,PGSN,15.119,145.729004
2246,Antonio B. Won Pat International Airport,Agana,Guam,GUM,PGUM,13.4834003448,144.796005249
2249,Marshall Islands International Airport,Majuro,Marshall Islands,MAJ,PKMJ,7.064760208129883,171.27200317382812
2252,Cassidy International Airport,Kiritimati,Kiribati,CXI,PLCH,1.9861600399017327,-157.35000610351562
2254,Chuuk International Airport,Chuuk,Micronesia,TKK,PTKK,7.461870193481445,151.84300231933594
2255,Pohnpei International Airport,Pohnpei,Micronesia,PNI,PTPN,6.985099792480469,158.20899963378906
2256,Babelthuap Airport,Babelthuap,Palau,ROR,PTRO,7.36731,134.544236
2257,Kosrae International Airport,Kosrae,Micronesia,KSA,PTSA,5.35698,162.957993
2258,Yap International Airport,Yap,Micronesia,YAP,PTYA,9.49891,138.082993
2259,Kinmen Airport,Kinmen,Taiwan,KNH,RCBS,24.4279,118.359001
2262,Taitung Airport,Fengnin,Taiwan,TTT,RCFN,22.7549991607666,121.10199737548828
2264,Kaohsiung International Airport,Kaohsiung,Taiwan,KHH,RCKH,22.57710075378418,120.3499984741211
2268,Taichung Ching Chuang Kang Airport,Taichung,Taiwan,RMQ,RCMQ,24.26469993591309,120.62100219726562
2270,Tainan Airport,Tainan,Taiwan,TNN,RCNN,22.95039939880371,120.20600128173828
2272,Makung Airport,Makung,Taiwan,MZG,RCQC,23.56870079040528,119.62799835205078
2275,Taipei Songshan Airport,Taipei,Taiwan,TSA,RCSS,25.06940078735352,121.552001953125
2276,Taiwan Taoyuan International Airport,Taipei,Taiwan,TPE,RCTP,25.0777,121.233002
2278,Hualien Airport,Hualien,Taiwan,HUN,RCYU,24.023099899291992,121.61799621582033
2279,Narita International Airport,Tokyo,Japan,NRT,RJAA,35.7647018433,140.386001587
2280,Matsumoto Airport,Matsumoto,Japan,MMJ,RJAF,36.16680145263672,137.92300415039062
2281,Hyakuri Airport,Ibaraki,Japan,IBR,RJAH,36.181098938,140.414993286
2284,Nanki Shirahama Airport,Nanki-shirahama,Japan,SHM,RJBD,33.6622009277,135.363998413
2286,Tokachi-Obihiro Airport,Obihiro,Japan,OBO,RJCB,42.7332992554,143.216995239
2287,New Chitose Airport,Sapporo,Japan,CTS,RJCC,42.77519989013672,141.69200134277344
2288,Hakodate Airport,Hakodate,Japan,HKD,RJCH,41.7700004578,140.822006226
2290,Memanbetsu Airport,Memanbetsu,Japan,MMB,RJCM,43.8805999756,144.164001465
2291,Nakashibetsu Airport,Nakashibetsu,Japan,SHB,RJCN,43.5774993896,144.960006714
2294,Wakkanai Airport,Wakkanai,Japan,WKJ,RJCW,45.4042015076,141.800994873
2295,Iki Airport,Iki,Japan,IKI,RJDB,33.7490005493,129.785003662
2296,Yamaguchi Ube Airport,Yamaguchi,Japan,UBJ,RJDC,33.930000305200004,131.279006958
2297,Tsushima Airport,Tsushima,Japan,TSJ,RJDT,34.2849006653,129.330993652
2298,Monbetsu Airport,Monbetsu,Japan,MBE,RJEB,44.3039016724,143.404006958
2299,Asahikawa Airport,Asahikawa,Japan,AKJ,RJEC,43.67079925537109,142.44700622558594
2304,Fukue Airport,Fukue,Japan,FUJ,RJFE,32.66630172729492,128.83299255371094
2305,Fukuoka Airport,Fukuoka,Japan,FUK,RJFF,33.585899353027344,130.4510040283203
2307,Kagoshima Airport,Kagoshima,Japan,KOJ,RJFK,31.80340003967285,130.718994140625
2308,Miyazaki Airport,Miyazaki,Japan,KMI,RJFM,31.877199173,131.449005127
2310,Oita Airport,Oita,Japan,OIT,RJFO,33.479400634799994,131.736999512
2311,Kitakyūshū Airport,Kitakyushu,Japan,KKJ,RJFR,33.8459014893,131.035003662
2312,Kumamoto Airport,Kumamoto,Japan,KMJ,RJFT,32.83729934692383,130.85499572753906
2313,Nagasaki Airport,Nagasaki,Japan,NGS,RJFU,32.916900634799994,129.914001465
2316,Amami Airport,Amami,Japan,ASJ,RJKA,28.430599212646484,129.71299743652344
2322,Komatsu Airport,Kanazawa,Japan,KMQ,RJNK,36.39459991455078,136.40699768066406
2324,Toyama Airport,Toyama,Japan,TOY,RJNT,36.64830017089844,137.18800354003906
2326,Hiroshima Airport,Hiroshima,Japan,HIJ,RJOA,34.4361000061,132.919006348
2327,Okayama Airport,Okayama,Japan,OKJ,RJOB,34.7569007874,133.854995728
2328,Izumo Airport,Izumo,Japan,IZO,RJOC,35.4136009216,132.88999939
2330,Miho Yonago Airport,Miho,Japan,YGJ,RJOH,35.4921989440918,133.23599243164062
2332,Kōchi Ryōma Airport,Kochi,Japan,KCZ,RJOK,33.546101,133.669006
2333,Matsuyama Airport,Matsuyama,Japan,MYJ,RJOM,33.82720184326172,132.6999969482422
2334,Osaka International Airport,Osaka,Japan,ITM,RJOO,34.785499572753906,135.43800354003906
2335,Tottori Airport,Tottori,Japan,TTJ,RJOR,35.5301017761,134.167007446
2336,Tokushima Airport/JMSDF Air Base,Tokushima,Japan,TKS,RJOS,34.132801,134.606995
2337,Takamatsu Airport,Takamatsu,Japan,TAK,RJOT,34.2141990662,134.01600647
2340,Aomori Airport,Aomori,Japan,AOJ,RJSA,40.73469924926758,140.6909942626953
2341,Yamagata Airport,Yamagata,Japan,GAJ,RJSC,38.4118995667,140.371002197
2344,Hanamaki Airport,Hanamaki,Japan,HNA,RJSI,39.4286003112793,141.13499450683594
2345,Akita Airport,Akita,Japan,AXT,RJSK,39.6156005859375,140.218994140625
2347,Sendai Airport,Sendai,Japan,SDJ,RJSS,38.1397018433,140.917007446
2352,Hachijojima Airport,Hachijojima,Japan,HAC,RJTH,33.1150016785,139.785995483
2356,Oshima Airport,Oshima,Japan,OIM,RJTO,34.7820014954,139.36000061
2359,Tokyo Haneda International Airport,Tokyo,Japan,HND,RJTT,35.552299,139.779999
2361,Gwangju Airport,Kwangju,South Korea,KWJ,RKJJ,35.123173,126.805444
2365,Yeosu Airport,Yeosu,South Korea,RSU,RKJY,34.84230041503906,127.61699676513672
2370,Jeju International Airport,Cheju,South Korea,CJU,RKPC,33.51129913330078,126.49299621582033
2372,Gimhae International Airport,Busan,South Korea,PUS,RKPK,35.1795005798,128.93800354
2374,Ulsan Airport,Ulsan,South Korea,USN,RKPU,35.59349823,129.352005005
2378,Gimpo International Airport,Seoul,South Korea,GMP,RKSS,37.5583,126.791
2380,Pohang Airport (G-815/K-3),Pohang,South Korea,KPO,RKTH,35.987955,129.420383
2381,Daegu Airport,Taegu,South Korea,TAE,RKTN,35.896872,128.65531
2384,Naha Airport,Okinawa,Japan,OKA,ROAH,26.1958007812,127.646003723
2387,New Ishigaki Airport,Ishigaki,Japan,ISG,ROIG,24.396389,124.245
2388,Kumejima Airport,Kumejima,Japan,UEO,ROKJ,26.363500595092773,126.71399688720705
2390,Miyako Airport,Miyako,Japan,MMY,ROMY,24.7828006744,125.294998169
2397,Ninoy Aquino International Airport,Manila,Philippines,MNL,RPLL,14.5086,121.019997
2399,Awang Airport,Cotabato,Philippines,CBO,RPMC,7.165239810943604,124.20999908447266
2400,Cagayan De Oro Airport,Ladag,Philippines,\N,RPML,8.41562,124.611
2401,Pagadian Airport,Pagadian,Philippines,PAG,RPMP,7.83073144787,123.461179733
2402,General Santos International Airport,Romblon,Philippines,GES,RPMR,6.05800008774,125.096000671
2404,Zamboanga International Airport,Zamboanga,Philippines,ZAM,RPMZ,6.922420024871826,122.05999755859376
2409,San Jose Airport,San Jose,Philippines,SJI,RPUH,12.361499786399998,121.04699707
2422,Daniel Z. Romualdez Airport,Tacloban,Philippines,TAC,RPVA,11.228035,125.027761
2423,Bacolod-Silay Airport,Bacolod,Philippines,BCD,RPVB,10.7764,123.014999
2425,Sibulan Airport,Dumaguete,Philippines,DGT,RPVD,9.3337097168,123.300003052
2426,Godofredo P. Ramos Airport,Caticlan,Philippines,MPH,RPVE,11.9245,121.954002
2429,Iloilo International Airport,Iloilo,Philippines,ILO,RPVI,10.833017,122.493358
2430,Kalibo International Airport,Kalibo,Philippines,KLO,RPVK,11.679400444,122.375999451
2433,Puerto Princesa Airport,Puerto Princesa,Philippines,PPS,RPVP,9.742119789123535,118.75900268554688
2439,General Urquiza Airport,Parana,Argentina,PRA,SAAP,-31.7948,-60.4804
2440,Islas Malvinas Airport,Rosario,Argentina,ROS,SAAR,-32.9036,-60.785
2441,Sauce Viejo Airport,Santa Fe,Argentina,SFN,SAAV,-31.7117,-60.8117
2443,Ingeniero Ambrosio Taravella Airport,Cordoba,Argentina,COR,SACO,-31.323601,-64.208
2452,El Plumerillo Airport,Mendoza,Argentina,MDZ,SAME,-32.8316993713,-68.7929000854
2454,Suboficial Ay Santiago Germano Airport,San Rafael,Argentina,AFA,SAMR,-34.588299,-68.4039
2455,Catamarca Airport,Catamarca,Argentina,CTC,SANC,-28.5956001282,-65.751701355
2456,Vicecomodoro Angel D. La Paz Aragonés Airport,Santiago Del Estero,Argentina,SDE,SANE,-27.7655563354,-64.3099975586
2458,Capitan V A Almonacid Airport,La Rioja,Argentina,IRJ,SANL,-29.3815994263,-66.7957992554
2460,Teniente Benjamin Matienzo Airport,Tucuman,Argentina,TUC,SANT,-26.8409,-65.104897
2461,Domingo Faustino Sarmiento Airport,San Juan,Argentina,UAQ,SANU,-31.571501,-68.418198
2467,Brigadier Mayor D Cesar Raul Ojeda Airport,San Luis,Argentina,LUQ,SAOU,-33.2732009888,-66.3563995361
2469,Resistencia International Airport,Resistencia,Argentina,RES,SARE,-27.45,-59.0561
2470,Formosa Airport,Formosa,Argentina,FMA,SARF,-26.2127,-58.2281
2471,Cataratas Del Iguazú International Airport,Iguazu Falls,Argentina,IGR,SARI,-25.737301,-54.4734
2474,Libertador Gral D Jose De San Martin Airport,Posadas,Argentina,PSS,SARP,-27.3858,-55.9707
2476,Martin Miguel De Guemes International Airport,Salta,Argentina,SLA,SASA,-24.8560009003,-65.4861984253
2477,Gobernador Horacio Guzman International Airport,Jujuy,Argentina,JUJ,SASJ,-24.392799,-65.097801
2487,General E. Mosconi Airport,Comodoro Rivadavia,Argentina,CRD,SAVC,-45.7853,-67.4655
2488,Brigadier Antonio Parodi Airport,Esquel,Argentina,EQS,SAVE,-42.908000946,-71.139503479
2490,Almirante Marco Andres Zar Airport,Trelew,Argentina,REL,SAVT,-43.2105,-65.2703
2491,Gobernador Castello Airport,Viedma,Argentina,VDM,SAVV,-40.8692,-63.0004
2492,El Tehuelche Airport,Puerto Madryn,Argentina,PMY,SAVY,-42.7592,-65.1027
2495,Hermes Quijada International Airport,Rio Grande,Argentina,RGA,SAWE,-53.7777,-67.7494
2496,Piloto Civil N. Fernández Airport,Rio Gallegos,Argentina,RGL,SAWG,-51.6089,-69.3126
2497,Malvinas Argentinas Airport,Ushuaia,Argentina,USH,SAWH,-54.8433,-68.2958
2501,Comandante Espora Airport,Bahia Blanca,Argentina,BHI,SAZB,-38.725,-62.1693
2508,Ástor Piazzola International Airport,Mar Del Plata,Argentina,MDQ,SAZM,-37.9342,-57.5733
2509,Presidente Peron Airport,Neuquen,Argentina,NQN,SAZN,-38.949001,-68.155701
2512,Santa Rosa Airport,Santa Rosa,Argentina,RSA,SAZR,-36.588299,-64.275703
2513,San Carlos De Bariloche Airport,San Carlos De Bariloche,Argentina,BRC,SAZS,-41.151199,-71.157501
2517,Aviador C. Campos Airport,San Martin Des Andes,Argentina,CPC,SAZY,-40.075401,-71.137299
2518,Conceição do Araguaia Airport,Conceicao Do Araguaia,Brazil,CDJ,SBAA,-8.348349571228027,-49.30149841308594
